{
  "type": "FeatureCollection",
  "features": [
    {
      "type": "Feature",
      "properties": {
        "name": "Kampung Seri Menanti"
      },
      "geometry": {
        "type": "Point",
        "coordinates": [
          103.464,
          1.58524
        ]
      }
    },
    {
      "type": "Feature",
      "properties": {
        "name": "Kampung Pak Kalib"
      },
      "geometry": {
        "type": "Point",
        "coordinates": [
          103.47767,
          1.56548
        ]
      }
    },
    {
      "type": "Feature",
      "properties": {
        "name": "Sk Kampung Sawah"
      },
      "geometry": {
        "type": "Point",
        "coordinates": [
          103.4938006,
          1.54324593
        ]
      }
    },
    {
      "type": "Feature",
      "properties": {
        "name": "Klinik Kesihatan Pekan Nenas"
      },
      "geometry": {
        "type": "Point",
        "coordinates": [
          103.51451,
          1.52177
        ]
      }
    },
    {
      "type": "Feature",
      "properties": {
        "name": "SMK Dato Mohd. Yunos Sulaiman"
      },
      "geometry": {
        "type": "Point",
        "coordinates": [
          103.513797,
          1.51944856
        ]
      }
    },
    {
      "type": "Feature",
      "properties": {
        "name": "Sekolah Agama Kampung Sawah"
      },
      "geometry": {
        "type": "Point",
        "coordinates": [
          103.4937317,
          1.54407809
        ]
      }
    },
    {
      "type": "Feature",
      "properties": {
        "name": "Jalan Sawah, Taman Damai"
      },
      "geometry": {
        "type": "Point",
        "coordinates": [
          103.5146582,
          1.52247268
        ]
      }
    },
    {
      "type": "Feature",
      "properties": {
        "name": "SMK Dato Mohd. Yunos Sulaiman (hala ke pekan nenas)"
      },
      "geometry": {
        "type": "Point",
        "coordinates": [
          103.5140418,
          1.51956905
        ]
      }
    },
    {
      "type": "Feature",
      "properties": {
        "name": "SMK Pekan Nenas"
      },
      "geometry": {
        "type": "Point",
        "coordinates": [
          103.5128537,
          1.51476764
        ]
      }
    },
    {
      "type": "Feature",
      "properties": {
        "name": "Sekolah Agama Pekan Nenas"
      },
      "geometry": {
        "type": "Point",
        "coordinates": [
          103.5120894,
          1.51218761
        ]
      }
    },
    {
      "type": "Feature",
      "properties": {
        "name": "Opposite Sekolah Agama Pekan Nenas"
      },
      "geometry": {
        "type": "Point",
        "coordinates": [
          103.51201,
          1.51240861
        ]
      }
    },
    {
      "type": "Feature",
      "properties": {
        "name": "Taman Utama,Jalan Skudai - Pontian"
      },
      "geometry": {
        "type": "Point",
        "coordinates": [
          103.5171077,
          1.50323519
        ]
      }
    },
    {
      "type": "Feature",
      "properties": {
        "name": "Maybank Pekan Nanas"
      },
      "geometry": {
        "type": "Point",
        "coordinates": [
          103.5172373,
          1.50213428
        ]
      }
    },
    {
      "type": "Feature",
      "properties": {
        "name": "Pekan Nenas Batu 26,Jalan Skudai - Pontian"
      },
      "geometry": {
        "type": "Point",
        "coordinates": [
          103.518063,
          1.49883688
        ]
      }
    },
    {
      "type": "Feature",
      "properties": {
        "name": "Taman Perindustrian Pekan Nenas 1,Jalan Skudai - Pontian"
      },
      "geometry": {
        "type": "Point",
        "coordinates": [
          103.5222992,
          1.49714616
        ]
      }
    },
    {
      "type": "Feature",
      "properties": {
        "name": "Kampung Seri Menanti (2)"
      },
      "geometry": {
        "type": "Point",
        "coordinates": [
          103.4661578,
          1.5783185
        ]
      }
    },
    {
      "type": "Feature",
      "properties": {
        "name": "Kampung Seri Menanti (3)"
      },
      "geometry": {
        "type": "Point",
        "coordinates": [
          103.4714337,
          1.56844439
        ]
      }
    },
    {
      "type": "Feature",
      "properties": {
        "name": "Taman Perindustrian Pekan Nenas 1,Jalan Skudai - Pontian"
      },
      "geometry": {
        "type": "Point",
        "coordinates": [
          103.5222992,
          1.49714616
        ]
      }
    }
  ]
}