{
  "type": "FeatureCollection",
  "features": [
    {
      "type": "Feature",
      "geometry": {
        "type": "Point",
        "coordinates": [
          103.394875,
          1.474275
        ]
      },
      "properties": {
        "name": "AADK Daerah Pontian"
      },
      "id": "cfrIl"
    },
    {
      "type": "Feature",
      "geometry": {
        "type": "Point",
        "coordinates": [
          103.656915,
          1.481061
        ]
      },
      "properties": {
        "name": "Aeon Bukit Indah"
      },
      "id": "48Kc9"
    },
    {
      "type": "Feature",
      "geometry": {
        "type": "Point",
        "coordinates": [
          103.734668,
          1.562908
        ]
      },
      "properties": {
        "name": "Aeon Dato Onn (Bus Stop)"
      },
      "id": "kQB19"
    },
    {
      "type": "Feature",
      "geometry": {
        "type": "Point",
        "coordinates": [
          103.6190077,
          1.64039259
        ]
      },
      "properties": {
        "name": "Aeon Kulai"
      },
      "id": "3BtTc"
    },
    {
      "type": "Feature",
      "geometry": {
        "type": "Point",
        "coordinates": [
          103.81635,
          1.49604
        ]
      },
      "properties": {
        "name": "Aeon Permas"
      },
      "id": "kXxKu"
    },
    {
      "type": "Feature",
      "geometry": {
        "type": "Point",
        "coordinates": [
          103.62989,
          1.5421
        ]
      },
      "properties": {
        "name": "Aeon Taman Universiti (ke Terminal)"
      },
      "id": "EgfaH"
    },
    {
      "type": "Feature",
      "geometry": {
        "type": "Point",
        "coordinates": [
          103.62989,
          1.5421
        ]
      },
      "properties": {
        "name": "Aeon Taman Universiti (ke Terminal)"
      },
      "id": "K3QZa"
    },
    {
      "type": "Feature",
      "geometry": {
        "type": "Point",
        "coordinates": [
          103.62989,
          1.5421
        ]
      },
      "properties": {
        "name": "Aeon Taman Universiti (ke Terminal) (Return)"
      },
      "id": "wxL02"
    },
    {
      "type": "Feature",
      "geometry": {
        "type": "Point",
        "coordinates": [
          103.62968,
          1.542312
        ]
      },
      "properties": {
        "name": "Aeon Taman Universiti,Jalan Pendidikan"
      },
      "id": "I6oHh"
    },
    {
      "type": "Feature",
      "geometry": {
        "type": "Point",
        "coordinates": [
          103.79659,
          1.55176
        ]
      },
      "properties": {
        "name": "Aeon Tebrau"
      },
      "id": "OI0qd"
    },
    {
      "type": "Feature",
      "geometry": {
        "type": "Point",
        "coordinates": [
          103.79659,
          1.55176
        ]
      },
      "properties": {
        "name": "Aeon Tebrau"
      },
      "id": "aX4xL"
    },
    {
      "type": "Feature",
      "geometry": {
        "type": "Point",
        "coordinates": [
          103.331962,
          2.036888
        ]
      },
      "properties": {
        "name": "Affin Bank Kluang"
      },
      "id": "EQROG"
    },
    {
      "type": "Feature",
      "geometry": {
        "type": "Point",
        "coordinates": [
          102.7388345,
          2.13691722
        ]
      },
      "properties": {
        "name": "Agro Bazar R&amp;R Pagoh"
      },
      "id": "mJPT4"
    },
    {
      "type": "Feature",
      "geometry": {
        "type": "Point",
        "coordinates": [
          102.7388345,
          2.13691722
        ]
      },
      "properties": {
        "name": "Agro Bazar R&amp;R Pagoh"
      },
      "id": "LNXZb"
    },
    {
      "type": "Feature",
      "geometry": {
        "type": "Point",
        "coordinates": [
          103.97598,
          1.70144614
        ]
      },
      "properties": {
        "name": "Air Tawar 3,Jalan Kota Tinggi - Pengerang"
      },
      "id": "ibZc2"
    },
    {
      "type": "Feature",
      "geometry": {
        "type": "Point",
        "coordinates": [
          103.70766,
          1.49601
        ]
      },
      "properties": {
        "name": "Angsana"
      },
      "id": "3tPpf"
    },
    {
      "type": "Feature",
      "geometry": {
        "type": "Point",
        "coordinates": [
          103.70766,
          1.49601
        ]
      },
      "properties": {
        "name": "Angsana"
      },
      "id": "dmu7U"
    },
    {
      "type": "Feature",
      "geometry": {
        "type": "Point",
        "coordinates": [
          103.6981008,
          1.51553111
        ]
      },
      "properties": {
        "name": "Anjung Selera Cempaka,Jalan Persiaran Teratai"
      },
      "id": "uoJ7J"
    },
    {
      "type": "Feature",
      "geometry": {
        "type": "Point",
        "coordinates": [
          103.8411774,
          1.59951154
        ]
      },
      "properties": {
        "name": "Ann Lock Garden"
      },
      "id": "2uJgK"
    },
    {
      "type": "Feature",
      "geometry": {
        "type": "Point",
        "coordinates": [
          103.6036414,
          1.66135832
        ]
      },
      "properties": {
        "name": "Arked Kulai"
      },
      "id": "JDSI9"
    },
    {
      "type": "Feature",
      "geometry": {
        "type": "Point",
        "coordinates": [
          102.8062135,
          2.53531874
        ]
      },
      "properties": {
        "name": "Asrama Pusat Segamat"
      },
      "id": "fdKza"
    },
    {
      "type": "Feature",
      "geometry": {
        "type": "Point",
        "coordinates": [
          103.1196132,
          2.29458364
        ]
      },
      "properties": {
        "name": "Asrama SMK Bekok"
      },
      "id": "ATpdF"
    },
    {
      "type": "Feature",
      "geometry": {
        "type": "Point",
        "coordinates": [
          103.119614,
          2.294585
        ]
      },
      "properties": {
        "name": "Asrama SMK Bekok (Return)"
      },
      "id": "6SgPb"
    },
    {
      "type": "Feature",
      "geometry": {
        "type": "Point",
        "coordinates": [
          103.7035708,
          1.49576641
        ]
      },
      "properties": {
        "name": "B5 Street Market"
      },
      "id": "sN2ll"
    },
    {
      "type": "Feature",
      "geometry": {
        "type": "Point",
        "coordinates": [
          103.7035708,
          1.49576641
        ]
      },
      "properties": {
        "name": "B5 Street Market"
      },
      "id": "GaXBw"
    },
    {
      "type": "Feature",
      "geometry": {
        "type": "Point",
        "coordinates": [
          103.9297731,
          1.48699112
        ]
      },
      "properties": {
        "name": "Balai Masjid Al-Munawwarah,Jalan Ciku Utama 2"
      },
      "id": "Hvp6V"
    },
    {
      "type": "Feature",
      "geometry": {
        "type": "Point",
        "coordinates": [
          104.0204322,
          1.67155974
        ]
      },
      "properties": {
        "name": "Balai Polis Air Tawar 2,Jalan Kota Tinggi - Pengerang"
      },
      "id": "4bQyI"
    },
    {
      "type": "Feature",
      "geometry": {
        "type": "Point",
        "coordinates": [
          102.9347503,
          1.84783893
        ]
      },
      "properties": {
        "name": "Balai Polis Batu Pahat"
      },
      "id": "LYnQx"
    },
    {
      "type": "Feature",
      "geometry": {
        "type": "Point",
        "coordinates": [
          102.9347503,
          1.84783893
        ]
      },
      "properties": {
        "name": "Balai Polis Batu Pahat,Jalan Rahmat"
      },
      "id": "mCj3x"
    },
    {
      "type": "Feature",
      "geometry": {
        "type": "Point",
        "coordinates": [
          102.7816631,
          2.5475197
        ]
      },
      "properties": {
        "name": "Balai Polis Buloh Kasap"
      },
      "id": "zTsu6"
    },
    {
      "type": "Feature",
      "geometry": {
        "type": "Point",
        "coordinates": [
          102.5635194,
          2.1465205
        ]
      },
      "properties": {
        "name": "Balai Polis Sungai Mati, Bukit Gambir"
      },
      "id": "j8SlG"
    },
    {
      "type": "Feature",
      "geometry": {
        "type": "Point",
        "coordinates": [
          102.6588692,
          2.10705382
        ]
      },
      "properties": {
        "name": "Balai Raya Paya Panjang,Jalan Muar - Labis"
      },
      "id": "rwf11"
    },
    {
      "type": "Feature",
      "geometry": {
        "type": "Point",
        "coordinates": [
          103.5822963,
          1.65360426
        ]
      },
      "properties": {
        "name": "Balairaya Serbaguna Kota Putri Taman Puteri"
      },
      "id": "k3cig"
    },
    {
      "type": "Feature",
      "geometry": {
        "type": "Point",
        "coordinates": [
          103.6272845,
          1.65900681
        ]
      },
      "properties": {
        "name": "Bandar Baru Kulai,Jalan Putra 1"
      },
      "id": "OokHe"
    },
    {
      "type": "Feature",
      "geometry": {
        "type": "Point",
        "coordinates": [
          103.813103,
          1.49385505
        ]
      },
      "properties": {
        "name": "Bandar Baru Permas Jaya"
      },
      "id": "WPGRQ"
    },
    {
      "type": "Feature",
      "geometry": {
        "type": "Point",
        "coordinates": [
          103.813103,
          1.49385505
        ]
      },
      "properties": {
        "name": "Bandar Baru Permas Jaya"
      },
      "id": "VavEk"
    },
    {
      "type": "Feature",
      "geometry": {
        "type": "Point",
        "coordinates": [
          102.577906,
          2.293873
        ]
      },
      "properties": {
        "name": "Bandar Baru Tangkak"
      },
      "id": "o7Osu"
    },
    {
      "type": "Feature",
      "geometry": {
        "type": "Point",
        "coordinates": [
          103.7121376,
          1.48956853
        ]
      },
      "properties": {
        "name": "Bandar Baru Uda, Jalan Skudai"
      },
      "id": "VQtJJ"
    },
    {
      "type": "Feature",
      "geometry": {
        "type": "Point",
        "coordinates": [
          103.7121376,
          1.48956853
        ]
      },
      "properties": {
        "name": "Bandar Baru Uda, Jalan Skudai"
      },
      "id": "PzNlW"
    },
    {
      "type": "Feature",
      "geometry": {
        "type": "Point",
        "coordinates": [
          103.7174637,
          1.49660801
        ]
      },
      "properties": {
        "name": "Bandar Baru UDA,Jalan Padi Mahsuri"
      },
      "id": "wgUTC"
    },
    {
      "type": "Feature",
      "geometry": {
        "type": "Point",
        "coordinates": [
          103.7174637,
          1.49660801
        ]
      },
      "properties": {
        "name": "Bandar Baru UDA,Jalan Padi Mahsuri"
      },
      "id": "XQB1U"
    },
    {
      "type": "Feature",
      "geometry": {
        "type": "Point",
        "coordinates": [
          103.7100142,
          1.49623444
        ]
      },
      "properties": {
        "name": "Bandar Baru UDA,Jalan Skudai Kanan"
      },
      "id": "iYr2C"
    },
    {
      "type": "Feature",
      "geometry": {
        "type": "Point",
        "coordinates": [
          103.7100142,
          1.49623444
        ]
      },
      "properties": {
        "name": "Bandar Baru UDA,Jalan Skudai Kanan"
      },
      "id": "gqMoe"
    },
    {
      "type": "Feature",
      "geometry": {
        "type": "Point",
        "coordinates": [
          103.589277,
          1.553831
        ]
      },
      "properties": {
        "name": "Bandar Kangkar Pulai, Jalan Persiaran Utama"
      },
      "id": "LV11R"
    },
    {
      "type": "Feature",
      "geometry": {
        "type": "Point",
        "coordinates": [
          104.138947,
          1.602771
        ]
      },
      "properties": {
        "name": "Bandar Mas"
      },
      "id": "G5S99"
    },
    {
      "type": "Feature",
      "geometry": {
        "type": "Point",
        "coordinates": [
          104.13829,
          1.602677
        ]
      },
      "properties": {
        "name": "Bandar Mas (Tiang 2)"
      },
      "id": "3KVu6"
    },
    {
      "type": "Feature",
      "geometry": {
        "type": "Point",
        "coordinates": [
          103.6241207,
          1.65705285
        ]
      },
      "properties": {
        "name": "Bandar Putra 2,Jalan Putra 1"
      },
      "id": "YBwFu"
    },
    {
      "type": "Feature",
      "geometry": {
        "type": "Point",
        "coordinates": [
          103.6337657,
          1.66424298
        ]
      },
      "properties": {
        "name": "Bandar Putra,Jalan Merak Utama"
      },
      "id": "lGhvv"
    },
    {
      "type": "Feature",
      "geometry": {
        "type": "Point",
        "coordinates": [
          103.621977,
          1.65145612
        ]
      },
      "properties": {
        "name": "Bandar Putra,Jalan Putra 1"
      },
      "id": "QRIZ4"
    },
    {
      "type": "Feature",
      "geometry": {
        "type": "Point",
        "coordinates": [
          102.8517,
          2.49104
        ]
      },
      "properties": {
        "name": "Bandar Segamat Baru"
      },
      "id": "C4z1m"
    },
    {
      "type": "Feature",
      "geometry": {
        "type": "Point",
        "coordinates": [
          102.8377241,
          2.49387896
        ]
      },
      "properties": {
        "name": "Bandar Segamat Baru III"
      },
      "id": "z794E"
    },
    {
      "type": "Feature",
      "geometry": {
        "type": "Point",
        "coordinates": [
          103.650795,
          1.500474
        ]
      },
      "properties": {
        "name": "Bandar Selesa Jaya"
      },
      "id": "3POB1"
    },
    {
      "type": "Feature",
      "geometry": {
        "type": "Point",
        "coordinates": [
          103.650795,
          1.500474
        ]
      },
      "properties": {
        "name": "Bandar Selesa Jaya"
      },
      "id": "AM9mF"
    },
    {
      "type": "Feature",
      "geometry": {
        "type": "Point",
        "coordinates": [
          103.650796,
          1.500475
        ]
      },
      "properties": {
        "name": "Bandar Selesa Jaya (Balik)"
      },
      "id": "u75eH"
    },
    {
      "type": "Feature",
      "geometry": {
        "type": "Point",
        "coordinates": [
          103.65428,
          1.5011
        ]
      },
      "properties": {
        "name": "Bandar Selesa Jaya (Tiang 2)"
      },
      "id": "4sm9M"
    },
    {
      "type": "Feature",
      "geometry": {
        "type": "Point",
        "coordinates": [
          103.65428,
          1.5011
        ]
      },
      "properties": {
        "name": "Bandar Selesa Jaya (Tiang 2)"
      },
      "id": "FjKYV"
    },
    {
      "type": "Feature",
      "geometry": {
        "type": "Point",
        "coordinates": [
          103.65429,
          1.5012
        ]
      },
      "properties": {
        "name": "Bandar Selesa Jaya (Tiang 2) (Balik)"
      },
      "id": "B8u2d"
    },
    {
      "type": "Feature",
      "geometry": {
        "type": "Point",
        "coordinates": [
          103.8214845,
          1.61050372
        ]
      },
      "properties": {
        "name": "Bandar Tiram Kota Tinggi"
      },
      "id": "vQa6C"
    },
    {
      "type": "Feature",
      "geometry": {
        "type": "Point",
        "coordinates": [
          103.8214845,
          1.61050372
        ]
      },
      "properties": {
        "name": "Bandar Tiram Kota Tinggi"
      },
      "id": "WJ4y4"
    },
    {
      "type": "Feature",
      "geometry": {
        "type": "Point",
        "coordinates": [
          102.59841676,
          2.03246051
        ]
      },
      "properties": {
        "name": "Bangunan Majlis Perbandaran Muar"
      },
      "id": "aOWfD"
    },
    {
      "type": "Feature",
      "geometry": {
        "type": "Point",
        "coordinates": [
          103.905317,
          1.733816
        ]
      },
      "properties": {
        "name": "Bank Muamalat Kota Tinggi"
      },
      "id": "KiRnY"
    },
    {
      "type": "Feature",
      "geometry": {
        "type": "Point",
        "coordinates": [
          104.271411,
          1.387284
        ]
      },
      "properties": {
        "name": "Bayu Damai"
      },
      "id": "HRUka"
    },
    {
      "type": "Feature",
      "geometry": {
        "type": "Point",
        "coordinates": [
          104.271411,
          1.387284
        ]
      },
      "properties": {
        "name": "Bayu Damai"
      },
      "id": "HXkBI"
    },
    {
      "type": "Feature",
      "geometry": {
        "type": "Point",
        "coordinates": [
          103.7645415,
          1.50367704
        ]
      },
      "properties": {
        "name": "BHPetrol Lebuhraya Tebrau"
      },
      "id": "Hp1Ln"
    },
    {
      "type": "Feature",
      "geometry": {
        "type": "Point",
        "coordinates": [
          103.6368943,
          1.52187925
        ]
      },
      "properties": {
        "name": "Book Talk Mutiara Rini"
      },
      "id": "LGsbO"
    },
    {
      "type": "Feature",
      "geometry": {
        "type": "Point",
        "coordinates": [
          102.963126,
          1.863628
        ]
      },
      "properties": {
        "name": "BP MALL"
      },
      "id": "VRG23"
    },
    {
      "type": "Feature",
      "geometry": {
        "type": "Point",
        "coordinates": [
          102.963126,
          1.863628
        ]
      },
      "properties": {
        "name": "BP MALL"
      },
      "id": "t24UD"
    },
    {
      "type": "Feature",
      "geometry": {
        "type": "Point",
        "coordinates": [
          103.3558698,
          1.93786306
        ]
      },
      "properties": {
        "name": "Bukit Benut"
      },
      "id": "jv56E"
    },
    {
      "type": "Feature",
      "geometry": {
        "type": "Point",
        "coordinates": [
          102.6328455,
          2.09658329
        ]
      },
      "properties": {
        "name": "Bukit Pasir"
      },
      "id": "jZzkA"
    },
    {
      "type": "Feature",
      "geometry": {
        "type": "Point",
        "coordinates": [
          102.641859,
          2.100227
        ]
      },
      "properties": {
        "name": "Bukit Pasir (Bus Stop)"
      },
      "id": "vfqyC"
    },
    {
      "type": "Feature",
      "geometry": {
        "type": "Point",
        "coordinates": [
          103.74886,
          1.47292
        ]
      },
      "properties": {
        "name": "Bukit Saujana"
      },
      "id": "QEodR"
    },
    {
      "type": "Feature",
      "geometry": {
        "type": "Point",
        "coordinates": [
          102.8477436,
          2.4856772
        ]
      },
      "properties": {
        "name": "Bukit Siput"
      },
      "id": "9uYiW"
    },
    {
      "type": "Feature",
      "geometry": {
        "type": "Point",
        "coordinates": [
          102.8493702,
          2.48921682
        ]
      },
      "properties": {
        "name": "Bukit Siput,Jalan Genuang"
      },
      "id": "i1hyr"
    },
    {
      "type": "Feature",
      "geometry": {
        "type": "Point",
        "coordinates": [
          103.746183,
          1.500511
        ]
      },
      "properties": {
        "name": "Caltex Jalan Dewata (Bus Stop)"
      },
      "id": "Z5E8y"
    },
    {
      "type": "Feature",
      "geometry": {
        "type": "Point",
        "coordinates": [
          103.6569323,
          1.51372722
        ]
      },
      "properties": {
        "name": "Caltex Taman Ungku Tun Aminah"
      },
      "id": "Tlcse"
    },
    {
      "type": "Feature",
      "geometry": {
        "type": "Point",
        "coordinates": [
          103.24117662,
          2.13221121
        ]
      },
      "properties": {
        "name": "CHAMEK MS TRADING SDN BHD"
      },
      "id": "emP4z"
    },
    {
      "type": "Feature",
      "geometry": {
        "type": "Point",
        "coordinates": [
          103.6591254,
          1.51755144
        ]
      },
      "properties": {
        "name": "Commercial Area Taman Nakhoda,Jalan Tun Aminah"
      },
      "id": "53w7A"
    },
    {
      "type": "Feature",
      "geometry": {
        "type": "Point",
        "coordinates": [
          102.7845218,
          2.54791324
        ]
      },
      "properties": {
        "name": "Commercial Taman Segamat Jaya"
      },
      "id": "1Gr10"
    },
    {
      "type": "Feature",
      "geometry": {
        "type": "Point",
        "coordinates": [
          102.984475,
          1.870405
        ]
      },
      "properties": {
        "name": "COWBOY BATU PAHAT"
      },
      "id": "6mv00"
    },
    {
      "type": "Feature",
      "geometry": {
        "type": "Point",
        "coordinates": [
          102.984475,
          1.870405
        ]
      },
      "properties": {
        "name": "COWBOY BATU PAHAT"
      },
      "id": "YguAG"
    },
    {
      "type": "Feature",
      "geometry": {
        "type": "Point",
        "coordinates": [
          102.93467,
          1.845
        ]
      },
      "properties": {
        "name": "Dataran Batu Pahat"
      },
      "id": "Hki2e"
    },
    {
      "type": "Feature",
      "geometry": {
        "type": "Point",
        "coordinates": [
          102.93467,
          1.845
        ]
      },
      "properties": {
        "name": "Dataran batu pahat"
      },
      "id": "Psx7w"
    },
    {
      "type": "Feature",
      "geometry": {
        "type": "Point",
        "coordinates": [
          102.6391223,
          2.0989427
        ]
      },
      "properties": {
        "name": "Dataran Bukit Pasir,Jalan Muar - Labis"
      },
      "id": "BhbzN"
    },
    {
      "type": "Feature",
      "geometry": {
        "type": "Point",
        "coordinates": [
          103.78162,
          1.46948
        ]
      },
      "properties": {
        "name": "De' Stualang,Jalan Ibrahim Sultan"
      },
      "id": "Dm4tI"
    },
    {
      "type": "Feature",
      "geometry": {
        "type": "Point",
        "coordinates": [
          103.5434229,
          1.66803276
        ]
      },
      "properties": {
        "name": "Desa Perindustrian Sri Kulai 2"
      },
      "id": "VPFo4"
    },
    {
      "type": "Feature",
      "geometry": {
        "type": "Point",
        "coordinates": [
          103.8176642,
          1.5037232
        ]
      },
      "properties": {
        "name": "Desa Permas Jaya,Jalan Permas Utara"
      },
      "id": "gDg3W"
    },
    {
      "type": "Feature",
      "geometry": {
        "type": "Point",
        "coordinates": [
          103.9213101,
          1.51782202
        ]
      },
      "properties": {
        "name": "Desa Rakyat,Jalan Desa Rakyat"
      },
      "id": "5ZwV3"
    },
    {
      "type": "Feature",
      "geometry": {
        "type": "Point",
        "coordinates": [
          104.263288,
          1.536362
        ]
      },
      "properties": {
        "name": "Desaru Coast"
      },
      "id": "h8yGB"
    },
    {
      "type": "Feature",
      "geometry": {
        "type": "Point",
        "coordinates": [
          102.5675736,
          2.04256297
        ]
      },
      "properties": {
        "name": "Dewan Jubli Intan Sultan Ibrahim"
      },
      "id": "EyKcJ"
    },
    {
      "type": "Feature",
      "geometry": {
        "type": "Point",
        "coordinates": [
          102.7648071,
          2.55387134
        ]
      },
      "properties": {
        "name": "Dewan Raya Pekan Buloh Kasap"
      },
      "id": "nBW9B"
    },
    {
      "type": "Feature",
      "geometry": {
        "type": "Point",
        "coordinates": [
          102.6488424,
          2.20762506
        ]
      },
      "properties": {
        "name": "Dewan Serbaguna Bukit Gambir"
      },
      "id": "fAc1q"
    },
    {
      "type": "Feature",
      "geometry": {
        "type": "Point",
        "coordinates": [
          103.740894,
          1.49168658
        ]
      },
      "properties": {
        "name": "Dewan Serbaguna JKR Daerah Johor Bahru"
      },
      "id": "4zMgJ"
    },
    {
      "type": "Feature",
      "geometry": {
        "type": "Point",
        "coordinates": [
          103.74241,
          1.49496
        ]
      },
      "properties": {
        "name": "Dewan Serbaguna JKR Daerah Johor Bahru"
      },
      "id": "I2D2f"
    },
    {
      "type": "Feature",
      "geometry": {
        "type": "Point",
        "coordinates": [
          103.740894,
          1.49168658
        ]
      },
      "properties": {
        "name": "Dewan Serbaguna JKR Daerah Johor Bahru"
      },
      "id": "ofL2Q"
    },
    {
      "type": "Feature",
      "geometry": {
        "type": "Point",
        "coordinates": [
          103.740894,
          1.49168658
        ]
      },
      "properties": {
        "name": "Dewan Serbaguna JKR Daerah Johor Bahru"
      },
      "id": "NxXrI"
    },
    {
      "type": "Feature",
      "geometry": {
        "type": "Point",
        "coordinates": [
          103.740894,
          1.49168658
        ]
      },
      "properties": {
        "name": "Dewan Serbaguna JKR Daerah Johor Bahru"
      },
      "id": "3Zpfc"
    },
    {
      "type": "Feature",
      "geometry": {
        "type": "Point",
        "coordinates": [
          103.685251,
          1.482189
        ]
      },
      "properties": {
        "name": "Eco-Shop @ Perling "
      },
      "id": "BYlZQ"
    },
    {
      "type": "Feature",
      "geometry": {
        "type": "Point",
        "coordinates": [
          103.6562943,
          1.61091906
        ]
      },
      "properties": {
        "name": "Econsave Senai"
      },
      "id": "UmLSP"
    },
    {
      "type": "Feature",
      "geometry": {
        "type": "Point",
        "coordinates": [
          103.6562943,
          1.61091906
        ]
      },
      "properties": {
        "name": "Econsave Senai"
      },
      "id": "2QXtC"
    },
    {
      "type": "Feature",
      "geometry": {
        "type": "Point",
        "coordinates": [
          102.7286428,
          2.1318003
        ]
      },
      "properties": {
        "name": "Exit to Tol Pagoh"
      },
      "id": "nmW4c"
    },
    {
      "type": "Feature",
      "geometry": {
        "type": "Point",
        "coordinates": [
          103.6347582,
          1.55968082
        ]
      },
      "properties": {
        "name": "FABU Bus Stop (UTM Center Point)"
      },
      "id": "cBry2"
    },
    {
      "type": "Feature",
      "geometry": {
        "type": "Point",
        "coordinates": [
          103.6347583,
          1.55968083
        ]
      },
      "properties": {
        "name": "FABU Bus Stop (UTM Center Point)( Ke Tmn U)"
      },
      "id": "VsEHQ"
    },
    {
      "type": "Feature",
      "geometry": {
        "type": "Point",
        "coordinates": [
          103.6402261,
          1.55800737
        ]
      },
      "properties": {
        "name": "Fakulti Kejuruteraan Elektrikal, UTM"
      },
      "id": "8SVr9"
    },
    {
      "type": "Feature",
      "geometry": {
        "type": "Point",
        "coordinates": [
          103.6402262,
          1.55800737
        ]
      },
      "properties": {
        "name": "Fakulti Kejuruteraan Elektrikal, UTM (Balik)"
      },
      "id": "197PN"
    },
    {
      "type": "Feature",
      "geometry": {
        "type": "Point",
        "coordinates": [
          103.6416132,
          1.5603258
        ]
      },
      "properties": {
        "name": "Fakulti Kejuteraan Elektrik,Lingkaran Ilmu"
      },
      "id": "LVaPW"
    },
    {
      "type": "Feature",
      "geometry": {
        "type": "Point",
        "coordinates": [
          103.6416133,
          1.5603259
        ]
      },
      "properties": {
        "name": "Fakulti Kejuteraan Elektrik,Lingkaran Ilmu (Balik)"
      },
      "id": "XrxkP"
    },
    {
      "type": "Feature",
      "geometry": {
        "type": "Point",
        "coordinates": [
          104.0537008,
          1.62289045
        ]
      },
      "properties": {
        "name": "Felda Air Tawar 1"
      },
      "id": "SDNbg"
    },
    {
      "type": "Feature",
      "geometry": {
        "type": "Point",
        "coordinates": [
          104.053971,
          1.62211
        ]
      },
      "properties": {
        "name": "Felda Air Tawar 1 (tiang 2)"
      },
      "id": "G3yKJ"
    },
    {
      "type": "Feature",
      "geometry": {
        "type": "Point",
        "coordinates": [
          104.0480672,
          1.63109498
        ]
      },
      "properties": {
        "name": "Felda Air Tawar 1,Jalan Kota Tinggi - Pengerang"
      },
      "id": "6JRaP"
    },
    {
      "type": "Feature",
      "geometry": {
        "type": "Point",
        "coordinates": [
          104.0179836,
          1.67692569
        ]
      },
      "properties": {
        "name": "Felda Air Tawar 2,Jalan Kota Tinggi - Pengerang"
      },
      "id": "5rxyt"
    },
    {
      "type": "Feature",
      "geometry": {
        "type": "Point",
        "coordinates": [
          104.090149,
          1.606197
        ]
      },
      "properties": {
        "name": "Felda Air Tawar 5"
      },
      "id": "hkZfX"
    },
    {
      "type": "Feature",
      "geometry": {
        "type": "Point",
        "coordinates": [
          104.0903197,
          1.60643807
        ]
      },
      "properties": {
        "name": "Felda Air Tawar 5 (Tiang 2)"
      },
      "id": "qornb"
    },
    {
      "type": "Feature",
      "geometry": {
        "type": "Point",
        "coordinates": [
          103.677938,
          2.621512
        ]
      },
      "properties": {
        "name": "Felda Endau"
      },
      "id": "YsUUp"
    },
    {
      "type": "Feature",
      "geometry": {
        "type": "Point",
        "coordinates": [
          103.678393,
          2.621401
        ]
      },
      "properties": {
        "name": "Felda Endau (Ke Mersing)"
      },
      "id": "0MxWq"
    },
    {
      "type": "Feature",
      "geometry": {
        "type": "Point",
        "coordinates": [
          103.9595624,
          1.71635252
        ]
      },
      "properties": {
        "name": "Felda Pasak,Jalan Kota Tinggi - Pengerang"
      },
      "id": "c7diU"
    },
    {
      "type": "Feature",
      "geometry": {
        "type": "Point",
        "coordinates": [
          104.1048259,
          1.60480878
        ]
      },
      "properties": {
        "name": "Felda Semenchu,Jalan Kota Tinggi - Pengerang"
      },
      "id": "xP6CI"
    },
    {
      "type": "Feature",
      "geometry": {
        "type": "Point",
        "coordinates": [
          103.67161369,
          1.53290461
        ]
      },
      "properties": {
        "name": "Flat Impian Emas"
      },
      "id": "BKp6z"
    },
    {
      "type": "Feature",
      "geometry": {
        "type": "Point",
        "coordinates": [
          103.588847,
          1.553389
        ]
      },
      "properties": {
        "name": "Flat Kangkar Pulai "
      },
      "id": "weVMP"
    },
    {
      "type": "Feature",
      "geometry": {
        "type": "Point",
        "coordinates": [
          103.8580871,
          1.48624185
        ]
      },
      "properties": {
        "name": "Flat Ketapang,Jalan Ketapang"
      },
      "id": "yS4aP"
    },
    {
      "type": "Feature",
      "geometry": {
        "type": "Point",
        "coordinates": [
          103.745589,
          1.498305
        ]
      },
      "properties": {
        "name": "Flat Larkin Blok G"
      },
      "id": "Sf2rh"
    },
    {
      "type": "Feature",
      "geometry": {
        "type": "Point",
        "coordinates": [
          103.78119,
          1.47118
        ]
      },
      "properties": {
        "name": "Flat Stulang Laut"
      },
      "id": "yS7YE"
    },
    {
      "type": "Feature",
      "geometry": {
        "type": "Point",
        "coordinates": [
          103.7010979,
          1.51702066
        ]
      },
      "properties": {
        "name": "Flat Taman Cempaka,Jalan Persiaran Tanjung"
      },
      "id": "Vgjr5"
    },
    {
      "type": "Feature",
      "geometry": {
        "type": "Point",
        "coordinates": [
          103.672031,
          1.534106
        ]
      },
      "properties": {
        "name": "Flat Taman Impian Emas"
      },
      "id": "TxQPi"
    },
    {
      "type": "Feature",
      "geometry": {
        "type": "Point",
        "coordinates": [
          103.671482,
          1.532857
        ]
      },
      "properties": {
        "name": "Flat Taman Impian Emas (Bus Stop)"
      },
      "id": "BKW4q"
    },
    {
      "type": "Feature",
      "geometry": {
        "type": "Point",
        "coordinates": [
          103.880271,
          1.48444668
        ]
      },
      "properties": {
        "name": "Flat Taman Rinting, Lebuhraya Pasir Gudang"
      },
      "id": "KQwkx"
    },
    {
      "type": "Feature",
      "geometry": {
        "type": "Point",
        "coordinates": [
          103.6650654,
          1.52425563
        ]
      },
      "properties": {
        "name": "Floor Depot Taman Tun Ungku Aminah,Jalan Tun Aminah"
      },
      "id": "NuFJ6"
    },
    {
      "type": "Feature",
      "geometry": {
        "type": "Point",
        "coordinates": [
          103.09327,
          1.854421
        ]
      },
      "properties": {
        "name": "FUJITSU"
      },
      "id": "DAUlS"
    },
    {
      "type": "Feature",
      "geometry": {
        "type": "Point",
        "coordinates": [
          103.09327,
          1.854421
        ]
      },
      "properties": {
        "name": "FUJITSU"
      },
      "id": "OgDEY"
    },
    {
      "type": "Feature",
      "geometry": {
        "type": "Point",
        "coordinates": [
          103.628159,
          1.535675
        ]
      },
      "properties": {
        "name": "Gerai Jalan Kebangsaan, Taman Universiti "
      },
      "id": "SJWCA"
    },
    {
      "type": "Feature",
      "geometry": {
        "type": "Point",
        "coordinates": [
          103.5381792,
          1.66991993
        ]
      },
      "properties": {
        "name": "Gerai Makanan MPKu, Kelapa Sawit"
      },
      "id": "g81wH"
    },
    {
      "type": "Feature",
      "geometry": {
        "type": "Point",
        "coordinates": [
          103.5382377,
          1.67007237
        ]
      },
      "properties": {
        "name": "Gerai Makanan MPKu, Kelapa Sawit (Opposite)"
      },
      "id": "P7znp"
    },
    {
      "type": "Feature",
      "geometry": {
        "type": "Point",
        "coordinates": [
          103.6607849,
          1.565016
        ]
      },
      "properties": {
        "name": "Gerbang Bandaraya Iskandar Puteri"
      },
      "id": "lhx08"
    },
    {
      "type": "Feature",
      "geometry": {
        "type": "Point",
        "coordinates": [
          103.8803805,
          1.71100786
        ]
      },
      "properties": {
        "name": "Gereja Bethany,Jalan Johor"
      },
      "id": "eBAQY"
    },
    {
      "type": "Feature",
      "geometry": {
        "type": "Point",
        "coordinates": [
          103.8803805,
          1.71100786
        ]
      },
      "properties": {
        "name": "Gereja Bethany,Jalan Johor"
      },
      "id": "SgaPT"
    },
    {
      "type": "Feature",
      "geometry": {
        "type": "Point",
        "coordinates": [
          103.6988969,
          1.49883778
        ]
      },
      "properties": {
        "name": "Giant Hypermarket Tampoi"
      },
      "id": "exI9F"
    },
    {
      "type": "Feature",
      "geometry": {
        "type": "Point",
        "coordinates": [
          103.6988969,
          1.49883778
        ]
      },
      "properties": {
        "name": "Giant Hypermarket Tampoi"
      },
      "id": "d5COV"
    },
    {
      "type": "Feature",
      "geometry": {
        "type": "Point",
        "coordinates": [
          103.8159946,
          1.52786956
        ]
      },
      "properties": {
        "name": "Giant Hypermart Plentong,Jalan Masai Lama"
      },
      "id": "8vFOn"
    },
    {
      "type": "Feature",
      "geometry": {
        "type": "Point",
        "coordinates": [
          103.76138,
          1.50415
        ]
      },
      "properties": {
        "name": "Giant Tmn Suria"
      },
      "id": "DUqqX"
    },
    {
      "type": "Feature",
      "geometry": {
        "type": "Point",
        "coordinates": [
          104.106077,
          1.925405
        ]
      },
      "properties": {
        "name": "GIATMARA TG. SEDILI"
      },
      "id": "9RmYt"
    },
    {
      "type": "Feature",
      "geometry": {
        "type": "Point",
        "coordinates": [
          103.5831556,
          1.47820251
        ]
      },
      "properties": {
        "name": "GP Sentral"
      },
      "id": "vWRH4"
    },
    {
      "type": "Feature",
      "geometry": {
        "type": "Point",
        "coordinates": [
          103.5831556,
          1.47820251
        ]
      },
      "properties": {
        "name": "GP Sentral"
      },
      "id": "Yp03F"
    },
    {
      "type": "Feature",
      "geometry": {
        "type": "Point",
        "coordinates": [
          104.1985321,
          1.58311987
        ]
      },
      "properties": {
        "name": "Hentian Penawar Kejora,Jalan Kota Tinggi - Pengerang"
      },
      "id": "Wkya9"
    },
    {
      "type": "Feature",
      "geometry": {
        "type": "Point",
        "coordinates": [
          103.9058869,
          1.47070187
        ]
      },
      "properties": {
        "name": "Honda,Jalan Bandar"
      },
      "id": "KEorG"
    },
    {
      "type": "Feature",
      "geometry": {
        "type": "Point",
        "coordinates": [
          103.9058869,
          1.47070187
        ]
      },
      "properties": {
        "name": "Honda,Jalan Bandar"
      },
      "id": "KHRQ5"
    },
    {
      "type": "Feature",
      "geometry": {
        "type": "Point",
        "coordinates": [
          103.9058869,
          1.47070187
        ]
      },
      "properties": {
        "name": "Honda,Jalan Bandar"
      },
      "id": "36zxU"
    },
    {
      "type": "Feature",
      "geometry": {
        "type": "Point",
        "coordinates": [
          103.76514,
          1.50141
        ]
      },
      "properties": {
        "name": "Hospital Columbia"
      },
      "id": "euzg4"
    },
    {
      "type": "Feature",
      "geometry": {
        "type": "Point",
        "coordinates": [
          103.3483714,
          2.00793404
        ]
      },
      "properties": {
        "name": "Hospital Enche Besar Hajjah Khalsam,Kluang"
      },
      "id": "v2C5r"
    },
    {
      "type": "Feature",
      "geometry": {
        "type": "Point",
        "coordinates": [
          103.89962,
          1.73606
        ]
      },
      "properties": {
        "name": "Hospital Kota Tinggi"
      },
      "id": "p90Ij"
    },
    {
      "type": "Feature",
      "geometry": {
        "type": "Point",
        "coordinates": [
          103.89962,
          1.73606
        ]
      },
      "properties": {
        "name": "Hospital Kota Tinggi"
      },
      "id": "YwCyD"
    },
    {
      "type": "Feature",
      "geometry": {
        "type": "Point",
        "coordinates": [
          103.8451323,
          2.42951819
        ]
      },
      "properties": {
        "name": "Hospital Mersing"
      },
      "id": "ocfFq"
    },
    {
      "type": "Feature",
      "geometry": {
        "type": "Point",
        "coordinates": [
          102.5742386,
          2.05673126
        ]
      },
      "properties": {
        "name": "Hospital Pakar Sultanah Fatimah"
      },
      "id": "TvujC"
    },
    {
      "type": "Feature",
      "geometry": {
        "type": "Point",
        "coordinates": [
          102.5742386,
          2.05673126
        ]
      },
      "properties": {
        "name": "Hospital Pakar Sultanah Fatimah"
      },
      "id": "u2I9T"
    },
    {
      "type": "Feature",
      "geometry": {
        "type": "Point",
        "coordinates": [
          102.5742386,
          2.05673126
        ]
      },
      "properties": {
        "name": "Hospital Pakar Sultanah Fatimah"
      },
      "id": "t49IV"
    },
    {
      "type": "Feature",
      "geometry": {
        "type": "Point",
        "coordinates": [
          102.860036,
          2.491562
        ]
      },
      "properties": {
        "name": "Hospital Segamat (Bus Stop)"
      },
      "id": "iY0fi"
    },
    {
      "type": "Feature",
      "geometry": {
        "type": "Point",
        "coordinates": [
          103.78914,
          1.54603
        ]
      },
      "properties": {
        "name": "Hospital Sultan Ismail"
      },
      "id": "5sIxh"
    },
    {
      "type": "Feature",
      "geometry": {
        "type": "Point",
        "coordinates": [
          103.78914,
          1.54603
        ]
      },
      "properties": {
        "name": "Hospital Sultan Ismail "
      },
      "id": "JCjDw"
    },
    {
      "type": "Feature",
      "geometry": {
        "type": "Point",
        "coordinates": [
          103.74675,
          1.45745
        ]
      },
      "properties": {
        "name": "Hospital Sultanah Aminah"
      },
      "id": "bR9mo"
    },
    {
      "type": "Feature",
      "geometry": {
        "type": "Point",
        "coordinates": [
          102.940693,
          1.8367
        ]
      },
      "properties": {
        "name": "Hospital Sultanah Nora Ismail"
      },
      "id": "uPzJG"
    },
    {
      "type": "Feature",
      "geometry": {
        "type": "Point",
        "coordinates": [
          102.940693,
          1.8367
        ]
      },
      "properties": {
        "name": "Hospital Sultanah Nora Ismail"
      },
      "id": "hnrn1"
    },
    {
      "type": "Feature",
      "geometry": {
        "type": "Point",
        "coordinates": [
          102.547,
          2.2722
        ]
      },
      "properties": {
        "name": "Hospital Tangkak"
      },
      "id": "6wija"
    },
    {
      "type": "Feature",
      "geometry": {
        "type": "Point",
        "coordinates": [
          103.6247393,
          1.63938489
        ]
      },
      "properties": {
        "name": "Hospital Temenggong Seri Maharaja Tun Ibrahim, Kulai"
      },
      "id": "jAPlT"
    },
    {
      "type": "Feature",
      "geometry": {
        "type": "Point",
        "coordinates": [
          103.805696,
          1.5331966
        ]
      },
      "properties": {
        "name": "Hua Yee Tiling,Jalan Dedap 1"
      },
      "id": "gQ3JT"
    },
    {
      "type": "Feature",
      "geometry": {
        "type": "Point",
        "coordinates": [
          103.6342397,
          1.51173804
        ]
      },
      "properties": {
        "name": "Hutan Bandar MBIP"
      },
      "id": "WMti1"
    },
    {
      "type": "Feature",
      "geometry": {
        "type": "Point",
        "coordinates": [
          103.7473727,
          1.48094023
        ]
      },
      "properties": {
        "name": "Hutan Bandar MBJB"
      },
      "id": "I9OUm"
    },
    {
      "type": "Feature",
      "geometry": {
        "type": "Point",
        "coordinates": [
          103.31646209,
          2.03053089
        ]
      },
      "properties": {
        "name": "IBUPEJABAT POLIS KLUANG"
      },
      "id": "dT4hg"
    },
    {
      "type": "Feature",
      "geometry": {
        "type": "Point",
        "coordinates": [
          103.728517,
          1.501465
        ]
      },
      "properties": {
        "name": "IKM Johor Bahru"
      },
      "id": "nIQYt"
    },
    {
      "type": "Feature",
      "geometry": {
        "type": "Point",
        "coordinates": [
          102.7208102,
          2.133312
        ]
      },
      "properties": {
        "name": "IKTBN Pagoh,Jalan Muar - Pagoh"
      },
      "id": "fmea0"
    },
    {
      "type": "Feature",
      "geometry": {
        "type": "Point",
        "coordinates": [
          103.6136129,
          1.64748903
        ]
      },
      "properties": {
        "name": "Indahpura Iris Park,Jalan Besar"
      },
      "id": "SH6R7"
    },
    {
      "type": "Feature",
      "geometry": {
        "type": "Point",
        "coordinates": [
          102.602289,
          2.300485
        ]
      },
      "properties": {
        "name": "Institut Latihan Perindustrian Ledang"
      },
      "id": "ZIzMD"
    },
    {
      "type": "Feature",
      "geometry": {
        "type": "Point",
        "coordinates": [
          102.602046,
          2.300144
        ]
      },
      "properties": {
        "name": "Institut Latihan Perindustrian Ledang (Ke Tangkak))"
      },
      "id": "W7Zoa"
    },
    {
      "type": "Feature",
      "geometry": {
        "type": "Point",
        "coordinates": [
          103.6259376,
          1.64793775
        ]
      },
      "properties": {
        "name": "IOI Mall Kulai"
      },
      "id": "wRtfh"
    },
    {
      "type": "Feature",
      "geometry": {
        "type": "Point",
        "coordinates": [
          102.985295,
          1.87039
        ]
      },
      "properties": {
        "name": "IPG TUN HUSSEIN ONN"
      },
      "id": "DZPVZ"
    },
    {
      "type": "Feature",
      "geometry": {
        "type": "Point",
        "coordinates": [
          102.985295,
          1.87039
        ]
      },
      "properties": {
        "name": "IPG TUN HUSSEIN ONN"
      },
      "id": "aVOcQ"
    },
    {
      "type": "Feature",
      "geometry": {
        "type": "Point",
        "coordinates": [
          102.6600113,
          2.21619045
        ]
      },
      "properties": {
        "name": "Jabatan Bomba Bukit Gambir"
      },
      "id": "sfRuV"
    },
    {
      "type": "Feature",
      "geometry": {
        "type": "Point",
        "coordinates": [
          103.460984,
          1.343268
        ]
      },
      "properties": {
        "name": "Jabatan Kastam DiRaja Malaysia, Pontian"
      },
      "id": "CzqXX"
    },
    {
      "type": "Feature",
      "geometry": {
        "type": "Point",
        "coordinates": [
          103.72764007,
          1.49165698
        ]
      },
      "properties": {
        "name": "Jabatan Pendidikan Negeri Johor"
      },
      "id": "YF7As"
    },
    {
      "type": "Feature",
      "geometry": {
        "type": "Point",
        "coordinates": [
          103.73043419,
          1.50414711
        ]
      },
      "properties": {
        "name": "Jabatan Pertanian"
      },
      "id": "bisIt"
    },
    {
      "type": "Feature",
      "geometry": {
        "type": "Point",
        "coordinates": [
          102.930972,
          1.839744
        ]
      },
      "properties": {
        "name": "Jalan Ampuan"
      },
      "id": "EjzJ9"
    },
    {
      "type": "Feature",
      "geometry": {
        "type": "Point",
        "coordinates": [
          102.930972,
          1.839744
        ]
      },
      "properties": {
        "name": "Jalan Ampuan"
      },
      "id": "H3BBx"
    },
    {
      "type": "Feature",
      "geometry": {
        "type": "Point",
        "coordinates": [
          102.8028,
          2.5385
        ]
      },
      "properties": {
        "name": "Jalan Buloh Kasap (Pekan Jabi)"
      },
      "id": "QsAuI"
    },
    {
      "type": "Feature",
      "geometry": {
        "type": "Point",
        "coordinates": [
          103.7592884,
          1.57281634
        ]
      },
      "properties": {
        "name": "Jalan Daya, Taman Setia Indah"
      },
      "id": "zQHMT"
    },
    {
      "type": "Feature",
      "geometry": {
        "type": "Point",
        "coordinates": [
          103.9551758,
          1.47409345
        ]
      },
      "properties": {
        "name": "Jalan Delima Taman Kota Masai,Jalan Nenas Utama"
      },
      "id": "aK9DR"
    },
    {
      "type": "Feature",
      "geometry": {
        "type": "Point",
        "coordinates": [
          103.9158005,
          1.49918477
        ]
      },
      "properties": {
        "name": "Jalan Helang Taman Scientex,Jalan Persiaran Scientex"
      },
      "id": "xzshb"
    },
    {
      "type": "Feature",
      "geometry": {
        "type": "Point",
        "coordinates": [
          103.9501078,
          1.50572638
        ]
      },
      "properties": {
        "name": "Jalan Ixora 4, ~ Bandar Bistari Perdana"
      },
      "id": "CILeg"
    },
    {
      "type": "Feature",
      "geometry": {
        "type": "Point",
        "coordinates": [
          103.89342,
          1.71922
        ]
      },
      "properties": {
        "name": "Jalan Johor (Tmn Daiman Jaya)"
      },
      "id": "TfMzG"
    },
    {
      "type": "Feature",
      "geometry": {
        "type": "Point",
        "coordinates": [
          103.89342,
          1.71922
        ]
      },
      "properties": {
        "name": "Jalan Johor (Tmn Daiman Jaya)"
      },
      "id": "Qlc1i"
    },
    {
      "type": "Feature",
      "geometry": {
        "type": "Point",
        "coordinates": [
          103.89006,
          1.71913
        ]
      },
      "properties": {
        "name": "Jalan Johor Kota Tinggi"
      },
      "id": "WTwws"
    },
    {
      "type": "Feature",
      "geometry": {
        "type": "Point",
        "coordinates": [
          103.89006,
          1.71913
        ]
      },
      "properties": {
        "name": "Jalan Johor Kota Tinggi"
      },
      "id": "RfTe8"
    },
    {
      "type": "Feature",
      "geometry": {
        "type": "Point",
        "coordinates": [
          103.594863,
          1.558086
        ]
      },
      "properties": {
        "name": "Jalan Kangkar Pulai,  berhampiran PETRONAS Kangkar Pulai "
      },
      "id": "qgZhM"
    },
    {
      "type": "Feature",
      "geometry": {
        "type": "Point",
        "coordinates": [
          103.594961,
          1.557969
        ]
      },
      "properties": {
        "name": "Jalan Kangkar Pulai,  berhampiran PETRONAS Kangkar Pulai (Opposite)"
      },
      "id": "wSrCG"
    },
    {
      "type": "Feature",
      "geometry": {
        "type": "Point",
        "coordinates": [
          103.593538,
          1.557175
        ]
      },
      "properties": {
        "name": "Jalan Kangkar Pulai, Kampung Melayu Kangkar Pulai"
      },
      "id": "pxwtN"
    },
    {
      "type": "Feature",
      "geometry": {
        "type": "Point",
        "coordinates": [
          103.7223305,
          1.52703168
        ]
      },
      "properties": {
        "name": "Jalan Kempas Bahru, Kg Sri Kempas 1"
      },
      "id": "ga0AB"
    },
    {
      "type": "Feature",
      "geometry": {
        "type": "Point",
        "coordinates": [
          102.5589801,
          2.05899086
        ]
      },
      "properties": {
        "name": "Jalan Kesang"
      },
      "id": "cgd8S"
    },
    {
      "type": "Feature",
      "geometry": {
        "type": "Point",
        "coordinates": [
          102.971772,
          1.866133
        ]
      },
      "properties": {
        "name": "JALAN KLUANG"
      },
      "id": "2Ma13"
    },
    {
      "type": "Feature",
      "geometry": {
        "type": "Point",
        "coordinates": [
          102.971772,
          1.866133
        ]
      },
      "properties": {
        "name": "JALAN KLUANG"
      },
      "id": "Fuxpp"
    },
    {
      "type": "Feature",
      "geometry": {
        "type": "Point",
        "coordinates": [
          103.6362998,
          1.664127
        ]
      },
      "properties": {
        "name": "Jalan Merak Utama"
      },
      "id": "Yg6uo"
    },
    {
      "type": "Feature",
      "geometry": {
        "type": "Point",
        "coordinates": [
          102.5851121,
          2.01523578
        ]
      },
      "properties": {
        "name": "Jalan Murni 4 Taman Impian Murni"
      },
      "id": "wzm7g"
    },
    {
      "type": "Feature",
      "geometry": {
        "type": "Point",
        "coordinates": [
          103.9483619,
          1.48245742
        ]
      },
      "properties": {
        "name": "Jalan Nenas Taman Kota Masai,Jalan Nenas Utama"
      },
      "id": "vr9nv"
    },
    {
      "type": "Feature",
      "geometry": {
        "type": "Point",
        "coordinates": [
          102.5277,
          2.2578
        ]
      },
      "properties": {
        "name": "Jalan Parit Padang Lerek"
      },
      "id": "703OY"
    },
    {
      "type": "Feature",
      "geometry": {
        "type": "Point",
        "coordinates": [
          102.8126,
          2.5238
        ]
      },
      "properties": {
        "name": "Jalan Pemuda"
      },
      "id": "TuPYP"
    },
    {
      "type": "Feature",
      "geometry": {
        "type": "Point",
        "coordinates": [
          103.818246,
          1.514696
        ]
      },
      "properties": {
        "name": "Jalan Permas Utara (Bus Stop)"
      },
      "id": "ZxNFS"
    },
    {
      "type": "Feature",
      "geometry": {
        "type": "Point",
        "coordinates": [
          103.91294,
          1.49625
        ]
      },
      "properties": {
        "name": "Jalan Persiaran Scientex, Tmn Scientex"
      },
      "id": "9uRkl"
    },
    {
      "type": "Feature",
      "geometry": {
        "type": "Point",
        "coordinates": [
          103.585846,
          1.553361
        ]
      },
      "properties": {
        "name": "Jalan Pulai Harmoni 3 Bandar Baru Kangkar Pulai"
      },
      "id": "tzO5q"
    },
    {
      "type": "Feature",
      "geometry": {
        "type": "Point",
        "coordinates": [
          103.90285,
          1.50501
        ]
      },
      "properties": {
        "name": "Jalan Riang ~ Tmn Nusa Damai"
      },
      "id": "38oXy"
    },
    {
      "type": "Feature",
      "geometry": {
        "type": "Point",
        "coordinates": [
          103.5146582,
          1.52247268
        ]
      },
      "properties": {
        "name": "Jalan Sawah, Taman Damai"
      },
      "id": "h2Tmo"
    },
    {
      "type": "Feature",
      "geometry": {
        "type": "Point",
        "coordinates": [
          103.7012962,
          1.49659144
        ]
      },
      "properties": {
        "name": "Jalan Skudai, Kampung Pasir"
      },
      "id": "gPWky"
    },
    {
      "type": "Feature",
      "geometry": {
        "type": "Point",
        "coordinates": [
          103.7012962,
          1.49659144
        ]
      },
      "properties": {
        "name": "Jalan Skudai, Kampung Pasir"
      },
      "id": "7cr0R"
    },
    {
      "type": "Feature",
      "geometry": {
        "type": "Point",
        "coordinates": [
          103.6132875,
          1.64834637
        ]
      },
      "properties": {
        "name": "Jalan Susur Kulai"
      },
      "id": "z5YXa"
    },
    {
      "type": "Feature",
      "geometry": {
        "type": "Point",
        "coordinates": [
          103.7017571,
          1.49694697
        ]
      },
      "properties": {
        "name": "Jalan Tampoi, Jalan Skudai"
      },
      "id": "MmLZI"
    },
    {
      "type": "Feature",
      "geometry": {
        "type": "Point",
        "coordinates": [
          103.7017571,
          1.49694697
        ]
      },
      "properties": {
        "name": "Jalan Tampoi, Jalan Skudai"
      },
      "id": "6W3Xb"
    },
    {
      "type": "Feature",
      "geometry": {
        "type": "Point",
        "coordinates": [
          103.61303,
          1.56777
        ]
      },
      "properties": {
        "name": "Jalan Teratai, Tmn Teratai"
      },
      "id": "YhTF6"
    },
    {
      "type": "Feature",
      "geometry": {
        "type": "Point",
        "coordinates": [
          103.61303,
          1.56777
        ]
      },
      "properties": {
        "name": "Jalan Teratai, Tmn Teratai (Return)"
      },
      "id": "bwy2j"
    },
    {
      "type": "Feature",
      "geometry": {
        "type": "Point",
        "coordinates": [
          103.7298775,
          2.62341861
        ]
      },
      "properties": {
        "name": "Jalan Teriang Tengah Kampung Sungai Bebuta,Jalan Penyabong - Endau"
      },
      "id": "Rbax5"
    },
    {
      "type": "Feature",
      "geometry": {
        "type": "Point",
        "coordinates": [
          103.66344,
          1.52248
        ]
      },
      "properties": {
        "name": "Jalan Tun Aminah, Tmn Ungku Tun Aminah"
      },
      "id": "VJpdj"
    },
    {
      "type": "Feature",
      "geometry": {
        "type": "Point",
        "coordinates": [
          103.65417,
          1.51664
        ]
      },
      "properties": {
        "name": "Jalan Tun Fatimah, Tmn Ungku Tun Aminah"
      },
      "id": "nMxTs"
    },
    {
      "type": "Feature",
      "geometry": {
        "type": "Point",
        "coordinates": [
          103.7649012,
          1.46338278
        ]
      },
      "properties": {
        "name": "JB Sentral"
      },
      "id": "CSthr"
    },
    {
      "type": "Feature",
      "geometry": {
        "type": "Point",
        "coordinates": [
          103.7649012,
          1.46338278
        ]
      },
      "properties": {
        "name": "JB Sentral"
      },
      "id": "Rq7DM"
    },
    {
      "type": "Feature",
      "geometry": {
        "type": "Point",
        "coordinates": [
          103.7649012,
          1.46338278
        ]
      },
      "properties": {
        "name": "JB Sentral",
        "_umap_options": {
          "iconClass": "LargeCircle"
        }
      },
      "id": "Bjfnk"
    },
    {
      "type": "Feature",
      "geometry": {
        "type": "Point",
        "coordinates": [
          103.74906,
          2.647972
        ]
      },
      "properties": {
        "name": "Jeti Penyabong"
      },
      "id": "A2CLr"
    },
    {
      "type": "Feature",
      "geometry": {
        "type": "Point",
        "coordinates": [
          103.74906,
          2.647972
        ]
      },
      "properties": {
        "name": "Jeti Penyabong"
      },
      "id": "aXSCQ"
    },
    {
      "type": "Feature",
      "geometry": {
        "type": "Point",
        "coordinates": [
          103.4031604,
          1.48236512
        ]
      },
      "properties": {
        "name": "JKR Daerah Pontian, Jalan Skudai - Pontian"
      },
      "id": "gUZAu"
    },
    {
      "type": "Feature",
      "geometry": {
        "type": "Point",
        "coordinates": [
          103.61225,
          1.57053
        ]
      },
      "properties": {
        "name": "Jln Palas 5, Tmn Teratai"
      },
      "id": "LPvkP"
    },
    {
      "type": "Feature",
      "geometry": {
        "type": "Point",
        "coordinates": [
          103.612302,
          1.570531
        ]
      },
      "properties": {
        "name": "Jln Palas 5, Tmn Teratai (Return)"
      },
      "id": "0dOUD"
    },
    {
      "type": "Feature",
      "geometry": {
        "type": "Point",
        "coordinates": [
          102.6802271,
          2.22406994
        ]
      },
      "properties": {
        "name": "JPS Sawahring"
      },
      "id": "lqRIg"
    },
    {
      "type": "Feature",
      "geometry": {
        "type": "Point",
        "coordinates": [
          103.628828,
          1.728347
        ]
      },
      "properties": {
        "name": "Jumbo Mushroom Agricultural Farm"
      },
      "id": "L2xFz"
    },
    {
      "type": "Feature",
      "geometry": {
        "type": "Point",
        "coordinates": [
          103.61571589,
          2.27422889
        ]
      },
      "properties": {
        "name": "Kahang"
      },
      "id": "UbhMk"
    },
    {
      "type": "Feature",
      "geometry": {
        "type": "Point",
        "coordinates": [
          103.833626,
          2.51433486
        ]
      },
      "properties": {
        "name": "Kampung Air Papan,Jalan Air Papan"
      },
      "id": "CKqXr"
    },
    {
      "type": "Feature",
      "geometry": {
        "type": "Point",
        "coordinates": [
          104.2737275,
          1.37382567
        ]
      },
      "properties": {
        "name": "Kampung Baharu,Jalan Teluk Ramunia"
      },
      "id": "8beWB"
    },
    {
      "type": "Feature",
      "geometry": {
        "type": "Point",
        "coordinates": [
          103.7841741,
          1.49616139
        ]
      },
      "properties": {
        "name": "Kampung Bakar Batu"
      },
      "id": "GbTTH"
    },
    {
      "type": "Feature",
      "geometry": {
        "type": "Point",
        "coordinates": [
          103.7841741,
          1.49616139
        ]
      },
      "properties": {
        "name": "Kampung Bakar Batu"
      },
      "id": "erjb5"
    },
    {
      "type": "Feature",
      "geometry": {
        "type": "Point",
        "coordinates": [
          103.7841741,
          1.49616139
        ]
      },
      "properties": {
        "name": "Kampung Bakar Batu"
      },
      "id": "EbCdg"
    },
    {
      "type": "Feature",
      "geometry": {
        "type": "Point",
        "coordinates": [
          103.6445895,
          1.60023797
        ]
      },
      "properties": {
        "name": "Kampung Baru Senai"
      },
      "id": "Dh5vF"
    },
    {
      "type": "Feature",
      "geometry": {
        "type": "Point",
        "coordinates": [
          103.6445895,
          1.60023797
        ]
      },
      "properties": {
        "name": "Kampung Baru Senai"
      },
      "id": "quQsw"
    },
    {
      "type": "Feature",
      "geometry": {
        "type": "Point",
        "coordinates": [
          104.1544248,
          1.59646196
        ]
      },
      "properties": {
        "name": "Kampung Baru Sungai Mas,Jalan Kota Tinggi - Pengerang"
      },
      "id": "cphvE"
    },
    {
      "type": "Feature",
      "geometry": {
        "type": "Point",
        "coordinates": [
          103.3718604,
          1.92236338
        ]
      },
      "properties": {
        "name": "Kampung Baru Sungai Sayong Kluang"
      },
      "id": "B4gBN"
    },
    {
      "type": "Feature",
      "geometry": {
        "type": "Point",
        "coordinates": [
          103.3718597,
          1.92264694
        ]
      },
      "properties": {
        "name": "Kampung Baru Sungai Sayong Kluang (Tiang 2)"
      },
      "id": "6X5QG"
    },
    {
      "type": "Feature",
      "geometry": {
        "type": "Point",
        "coordinates": [
          103.7473244,
          2.62768115
        ]
      },
      "properties": {
        "name": "Kampung Baru Tanjung Penyabong,Jalan Penyabong - Endau"
      },
      "id": "yqE57"
    },
    {
      "type": "Feature",
      "geometry": {
        "type": "Point",
        "coordinates": [
          103.3256309,
          1.83756592
        ]
      },
      "properties": {
        "name": "Kampung Batu 7 Blok 3"
      },
      "id": "QQmh2"
    },
    {
      "type": "Feature",
      "geometry": {
        "type": "Point",
        "coordinates": [
          103.3256309,
          1.83756592
        ]
      },
      "properties": {
        "name": "Kampung Batu 7 Blok 3"
      },
      "id": "wtdqa"
    },
    {
      "type": "Feature",
      "geometry": {
        "type": "Point",
        "coordinates": [
          103.560395,
          2.230461
        ]
      },
      "properties": {
        "name": "Kampung Batu 24 Kahang"
      },
      "id": "EIlsM"
    },
    {
      "type": "Feature",
      "geometry": {
        "type": "Point",
        "coordinates": [
          103.80489,
          2.487973
        ]
      },
      "properties": {
        "name": "Kampung Batu Empat Setengah"
      },
      "id": "sB6ty"
    },
    {
      "type": "Feature",
      "geometry": {
        "type": "Point",
        "coordinates": [
          103.6567443,
          2.64574793
        ]
      },
      "properties": {
        "name": "Kampung Belukar Juling,Jalan Penyabong - Endau"
      },
      "id": "oVcqh"
    },
    {
      "type": "Feature",
      "geometry": {
        "type": "Point",
        "coordinates": [
          102.6307296,
          2.09552663
        ]
      },
      "properties": {
        "name": "Kampung Bukit Pasir,Jalan Muar - Labis"
      },
      "id": "jVw8Z"
    },
    {
      "type": "Feature",
      "geometry": {
        "type": "Point",
        "coordinates": [
          104.2338579,
          1.3623682
        ]
      },
      "properties": {
        "name": "Kampung Changi,Jalan Teluk Ramunia"
      },
      "id": "uGfgz"
    },
    {
      "type": "Feature",
      "geometry": {
        "type": "Point",
        "coordinates": [
          103.528529,
          2.206761
        ]
      },
      "properties": {
        "name": "Kampung Contoh Kahang"
      },
      "id": "hkjce"
    },
    {
      "type": "Feature",
      "geometry": {
        "type": "Point",
        "coordinates": [
          104.2655753,
          1.36877099
        ]
      },
      "properties": {
        "name": "Kampung Dato Ghani Othman,Jalan Teluk Rumania"
      },
      "id": "6OOOR"
    },
    {
      "type": "Feature",
      "geometry": {
        "type": "Point",
        "coordinates": [
          103.7418317,
          1.50063296
        ]
      },
      "properties": {
        "name": "Kampung Dato Onn Jaafar,Jalan Cendrawasih"
      },
      "id": "LaCks"
    },
    {
      "type": "Feature",
      "geometry": {
        "type": "Point",
        "coordinates": [
          103.395938,
          2.10378
        ]
      },
      "properties": {
        "name": "Kampung Gajah "
      },
      "id": "9vXCd"
    },
    {
      "type": "Feature",
      "geometry": {
        "type": "Point",
        "coordinates": [
          103.396021,
          2.103608
        ]
      },
      "properties": {
        "name": "Kampung Gajah (Return)"
      },
      "id": "y9Kaa"
    },
    {
      "type": "Feature",
      "geometry": {
        "type": "Point",
        "coordinates": [
          103.3306858,
          2.02570014
        ]
      },
      "properties": {
        "name": "Kampung Gunung Lambak 2"
      },
      "id": "o9SeK"
    },
    {
      "type": "Feature",
      "geometry": {
        "type": "Point",
        "coordinates": [
          103.641026,
          2.635609
        ]
      },
      "properties": {
        "name": "Kampung Hubong"
      },
      "id": "AaytM"
    },
    {
      "type": "Feature",
      "geometry": {
        "type": "Point",
        "coordinates": [
          103.040111,
          2.250064
        ]
      },
      "properties": {
        "name": "Kampung Jawa Baru"
      },
      "id": "SzKrT"
    },
    {
      "type": "Feature",
      "geometry": {
        "type": "Point",
        "coordinates": [
          102.714201,
          2.17218774
        ]
      },
      "properties": {
        "name": "Kampung Jawa Panchor"
      },
      "id": "oEoWE"
    },
    {
      "type": "Feature",
      "geometry": {
        "type": "Point",
        "coordinates": [
          103.6479775,
          1.5909101
        ]
      },
      "properties": {
        "name": "Kampung Jaya Sepakat"
      },
      "id": "1vSVk"
    },
    {
      "type": "Feature",
      "geometry": {
        "type": "Point",
        "coordinates": [
          103.6479775,
          1.5909101
        ]
      },
      "properties": {
        "name": "Kampung Jaya Sepakat"
      },
      "id": "pY6NH"
    },
    {
      "type": "Feature",
      "geometry": {
        "type": "Point",
        "coordinates": [
          102.6164122,
          2.06184733
        ]
      },
      "properties": {
        "name": "Kampung Jeram Tepi"
      },
      "id": "SnkrO"
    },
    {
      "type": "Feature",
      "geometry": {
        "type": "Point",
        "coordinates": [
          104.0559375,
          1.61048407
        ]
      },
      "properties": {
        "name": "Kampung Johor Lama,Jalan Kota Tinggi - Pengerang"
      },
      "id": "nfHP4"
    },
    {
      "type": "Feature",
      "geometry": {
        "type": "Point",
        "coordinates": [
          103.040297,
          2.236238
        ]
      },
      "properties": {
        "name": "Kampung Kangkar 1"
      },
      "id": "vPKPz"
    },
    {
      "type": "Feature",
      "geometry": {
        "type": "Point",
        "coordinates": [
          103.8539955,
          1.59051471
        ]
      },
      "properties": {
        "name": "Kampung Kangkar Sungai Tiram"
      },
      "id": "aQ6wk"
    },
    {
      "type": "Feature",
      "geometry": {
        "type": "Point",
        "coordinates": [
          103.4015415,
          1.48165952
        ]
      },
      "properties": {
        "name": "Kampung Kenanga,Jalan Skudai - Pontian"
      },
      "id": "DpHbB"
    },
    {
      "type": "Feature",
      "geometry": {
        "type": "Point",
        "coordinates": [
          102.6515038,
          2.04249474
        ]
      },
      "properties": {
        "name": "Kampung Kenangan Dato Abdul Jaafar,Jalan Muar"
      },
      "id": "7hVyI"
    },
    {
      "type": "Feature",
      "geometry": {
        "type": "Point",
        "coordinates": [
          103.402702,
          1.48200267
        ]
      },
      "properties": {
        "name": "Kampung Kubor,Jalan Skudai - Pontian"
      },
      "id": "8amWe"
    },
    {
      "type": "Feature",
      "geometry": {
        "type": "Point",
        "coordinates": [
          103.631423,
          2.639597
        ]
      },
      "properties": {
        "name": "Kampung Londang Batu"
      },
      "id": "48LHz"
    },
    {
      "type": "Feature",
      "geometry": {
        "type": "Point",
        "coordinates": [
          102.805478,
          2.50163899
        ]
      },
      "properties": {
        "name": "Kampung Lubok Batu"
      },
      "id": "P7Fbh"
    },
    {
      "type": "Feature",
      "geometry": {
        "type": "Point",
        "coordinates": [
          103.966013,
          1.85001
        ]
      },
      "properties": {
        "name": "Kampung Mawai"
      },
      "id": "htR0i"
    },
    {
      "type": "Feature",
      "geometry": {
        "type": "Point",
        "coordinates": [
          103.967132,
          1.850053
        ]
      },
      "properties": {
        "name": "Kampung Mawai (Ke Kota Tinggi )"
      },
      "id": "hQm8L"
    },
    {
      "type": "Feature",
      "geometry": {
        "type": "Point",
        "coordinates": [
          103.971228,
          1.851747
        ]
      },
      "properties": {
        "name": "Kampung Mawai Baharu"
      },
      "id": "g1JRC"
    },
    {
      "type": "Feature",
      "geometry": {
        "type": "Point",
        "coordinates": [
          103.4005044,
          1.88397538
        ]
      },
      "properties": {
        "name": "Kampung Melayu"
      },
      "id": "sntM0"
    },
    {
      "type": "Feature",
      "geometry": {
        "type": "Point",
        "coordinates": [
          103.4005044,
          1.88397538
        ]
      },
      "properties": {
        "name": "Kampung Melayu"
      },
      "id": "ExI5U"
    },
    {
      "type": "Feature",
      "geometry": {
        "type": "Point",
        "coordinates": [
          103.373178,
          2.083804
        ]
      },
      "properties": {
        "name": "Kampung Melayu 2 Batu 6"
      },
      "id": "LIBV9"
    },
    {
      "type": "Feature",
      "geometry": {
        "type": "Point",
        "coordinates": [
          103.125178,
          2.29664
        ]
      },
      "properties": {
        "name": "Kampung Melayu Baru Bekok"
      },
      "id": "RHDq8"
    },
    {
      "type": "Feature",
      "geometry": {
        "type": "Point",
        "coordinates": [
          103.125179,
          2.29665
        ]
      },
      "properties": {
        "name": "Kampung Melayu Baru Bekok (Return)"
      },
      "id": "9ljVn"
    },
    {
      "type": "Feature",
      "geometry": {
        "type": "Point",
        "coordinates": [
          102.7089131,
          2.17207325
        ]
      },
      "properties": {
        "name": "Kampung Melayu Baru Panchor"
      },
      "id": "TyXDP"
    },
    {
      "type": "Feature",
      "geometry": {
        "type": "Point",
        "coordinates": [
          103.7534023,
          1.50650935
        ]
      },
      "properties": {
        "name": "Kampung Melayu Majidee"
      },
      "id": "QvV03"
    },
    {
      "type": "Feature",
      "geometry": {
        "type": "Point",
        "coordinates": [
          103.3337936,
          1.97443996
        ]
      },
      "properties": {
        "name": "Kampung Mengkibol"
      },
      "id": "StPkI"
    },
    {
      "type": "Feature",
      "geometry": {
        "type": "Point",
        "coordinates": [
          102.6325845,
          2.19674657
        ]
      },
      "properties": {
        "name": "Kampung Meranti Sundai"
      },
      "id": "XXz5B"
    },
    {
      "type": "Feature",
      "geometry": {
        "type": "Point",
        "coordinates": [
          103.609196,
          1.566596
        ]
      },
      "properties": {
        "name": "Kampung Nesa Stop 2,Jalan Skudai - Pontian"
      },
      "id": "WsLmV"
    },
    {
      "type": "Feature",
      "geometry": {
        "type": "Point",
        "coordinates": [
          103.6057,
          1.566672
        ]
      },
      "properties": {
        "name": "Kampung Nesa,Jalan Skudai - Pontian"
      },
      "id": "rncoL"
    },
    {
      "type": "Feature",
      "geometry": {
        "type": "Point",
        "coordinates": [
          103.576365,
          2.242967
        ]
      },
      "properties": {
        "name": "Kampung Orang Asli Punjut"
      },
      "id": "4t5JC"
    },
    {
      "type": "Feature",
      "geometry": {
        "type": "Point",
        "coordinates": [
          103.47767,
          1.56548
        ]
      },
      "properties": {
        "name": "Kampung Pak Kalib"
      },
      "id": "avYLE"
    },
    {
      "type": "Feature",
      "geometry": {
        "type": "Point",
        "coordinates": [
          104.0220194,
          1.66714245
        ]
      },
      "properties": {
        "name": "Kampung Panchor,Jalan Kota Tinggi - Pengerang"
      },
      "id": "ALshZ"
    },
    {
      "type": "Feature",
      "geometry": {
        "type": "Point",
        "coordinates": [
          102.578228,
          2.022197
        ]
      },
      "properties": {
        "name": "Kampung Parit Peropok,Jalan Abdul Rahman"
      },
      "id": "MtAyq"
    },
    {
      "type": "Feature",
      "geometry": {
        "type": "Point",
        "coordinates": [
          102.6170884,
          2.18727409
        ]
      },
      "properties": {
        "name": "Kampung Parit Pulai"
      },
      "id": "vYpTS"
    },
    {
      "type": "Feature",
      "geometry": {
        "type": "Point",
        "coordinates": [
          102.6477798,
          2.20670115
        ]
      },
      "properties": {
        "name": "Kampung Parit Rabu"
      },
      "id": "q14Bp"
    },
    {
      "type": "Feature",
      "geometry": {
        "type": "Point",
        "coordinates": [
          103.407843,
          1.447945
        ]
      },
      "properties": {
        "name": "Kampung Parit Tegong"
      },
      "id": "atrBa"
    },
    {
      "type": "Feature",
      "geometry": {
        "type": "Point",
        "coordinates": [
          103.928245,
          1.44455206
        ]
      },
      "properties": {
        "name": "Kampung Pasir Putih,Jalan Pekeliling"
      },
      "id": "kqXql"
    },
    {
      "type": "Feature",
      "geometry": {
        "type": "Point",
        "coordinates": [
          103.057265,
          2.01571
        ]
      },
      "properties": {
        "name": "Kampung Paya"
      },
      "id": "l2B3j"
    },
    {
      "type": "Feature",
      "geometry": {
        "type": "Point",
        "coordinates": [
          103.336573,
          2.039499
        ]
      },
      "properties": {
        "name": "Kampung Paya Kluang"
      },
      "id": "eSKoI"
    },
    {
      "type": "Feature",
      "geometry": {
        "type": "Point",
        "coordinates": [
          103.336451,
          2.039061
        ]
      },
      "properties": {
        "name": "Kampung Paya Kluang (Return)"
      },
      "id": "EFIYR"
    },
    {
      "type": "Feature",
      "geometry": {
        "type": "Point",
        "coordinates": [
          102.562287,
          2.288869
        ]
      },
      "properties": {
        "name": "Kampung Paya Mas"
      },
      "id": "NAZCC"
    },
    {
      "type": "Feature",
      "geometry": {
        "type": "Point",
        "coordinates": [
          102.55039,
          2.283653
        ]
      },
      "properties": {
        "name": "Kampung Paya Mas"
      },
      "id": "CTqLi"
    },
    {
      "type": "Feature",
      "geometry": {
        "type": "Point",
        "coordinates": [
          102.6578019,
          2.10661059
        ]
      },
      "properties": {
        "name": "Kampung Paya Panjang,Jalan Muar - Labis"
      },
      "id": "45Jqz"
    },
    {
      "type": "Feature",
      "geometry": {
        "type": "Point",
        "coordinates": [
          102.6578019,
          2.10661059
        ]
      },
      "properties": {
        "name": "Kampung Paya Panjang,Jalan Muar - Labis II"
      },
      "id": "Bb5ZB"
    },
    {
      "type": "Feature",
      "geometry": {
        "type": "Point",
        "coordinates": [
          103.584248,
          2.249946
        ]
      },
      "properties": {
        "name": "Kampung Peta"
      },
      "id": "PPGlV"
    },
    {
      "type": "Feature",
      "geometry": {
        "type": "Point",
        "coordinates": [
          103.6098,
          2.269162
        ]
      },
      "properties": {
        "name": "Kampung Pinggir"
      },
      "id": "avLIt"
    },
    {
      "type": "Feature",
      "geometry": {
        "type": "Point",
        "coordinates": [
          103.8206011,
          1.52103786
        ]
      },
      "properties": {
        "name": "Kampung Plentong Baru,Jalan Masai Lama"
      },
      "id": "ymccw"
    },
    {
      "type": "Feature",
      "geometry": {
        "type": "Point",
        "coordinates": [
          104.2739522,
          1.43675291
        ]
      },
      "properties": {
        "name": "Kampung Punggai"
      },
      "id": "ZoYEL"
    },
    {
      "type": "Feature",
      "geometry": {
        "type": "Point",
        "coordinates": [
          104.27407,
          1.43666689
        ]
      },
      "properties": {
        "name": "Kampung Punggai"
      },
      "id": "FGprD"
    },
    {
      "type": "Feature",
      "geometry": {
        "type": "Point",
        "coordinates": [
          102.7973456,
          2.54515268
        ]
      },
      "properties": {
        "name": "Kampung Rasau"
      },
      "id": "vUel9"
    },
    {
      "type": "Feature",
      "geometry": {
        "type": "Point",
        "coordinates": [
          103.3168408,
          1.82042296
        ]
      },
      "properties": {
        "name": "Kampung Sahari,Jalan Ayer Hitam"
      },
      "id": "n4Pvw"
    },
    {
      "type": "Feature",
      "geometry": {
        "type": "Point",
        "coordinates": [
          103.3168408,
          1.82042296
        ]
      },
      "properties": {
        "name": "Kampung Sahari,Jalan Ayer Hitam"
      },
      "id": "KR98V"
    },
    {
      "type": "Feature",
      "geometry": {
        "type": "Point",
        "coordinates": [
          103.818343,
          2.465961
        ]
      },
      "properties": {
        "name": "Kampung Sawah Dato"
      },
      "id": "Av0aL"
    },
    {
      "type": "Feature",
      "geometry": {
        "type": "Point",
        "coordinates": [
          104.042736,
          1.881937
        ]
      },
      "properties": {
        "name": "Kampung Sayang "
      },
      "id": "yx2gP"
    },
    {
      "type": "Feature",
      "geometry": {
        "type": "Point",
        "coordinates": [
          104.043357,
          1.881082
        ]
      },
      "properties": {
        "name": "Kampung Sayang (Ke Kota Tinggi)"
      },
      "id": "Idcnk"
    },
    {
      "type": "Feature",
      "geometry": {
        "type": "Point",
        "coordinates": [
          103.360381,
          2.057914
        ]
      },
      "properties": {
        "name": "Kampung Sembrong"
      },
      "id": "2S0sG"
    },
    {
      "type": "Feature",
      "geometry": {
        "type": "Point",
        "coordinates": [
          104.088487,
          1.922808
        ]
      },
      "properties": {
        "name": "Kampung Sentosa"
      },
      "id": "6ZWGk"
    },
    {
      "type": "Feature",
      "geometry": {
        "type": "Point",
        "coordinates": [
          104.088673,
          1.92309
        ]
      },
      "properties": {
        "name": "Kampung Sentosa (Ke Kota Tinggi)"
      },
      "id": "bIlbh"
    },
    {
      "type": "Feature",
      "geometry": {
        "type": "Point",
        "coordinates": [
          103.6543966,
          1.58175836
        ]
      },
      "properties": {
        "name": "Kampung Sepakat Baru"
      },
      "id": "fbDcP"
    },
    {
      "type": "Feature",
      "geometry": {
        "type": "Point",
        "coordinates": [
          103.6609163,
          1.57101757
        ]
      },
      "properties": {
        "name": "Kampung Sepakat Baru, Skudai"
      },
      "id": "KnPfi"
    },
    {
      "type": "Feature",
      "geometry": {
        "type": "Point",
        "coordinates": [
          103.464,
          1.58524
        ]
      },
      "properties": {
        "name": "Kampung Seri Menanti"
      },
      "id": "5txQE"
    },
    {
      "type": "Feature",
      "geometry": {
        "type": "Point",
        "coordinates": [
          103.4661578,
          1.5783185
        ]
      },
      "properties": {
        "name": "Kampung Seri Menanti (2)"
      },
      "id": "CHaUh"
    },
    {
      "type": "Feature",
      "geometry": {
        "type": "Point",
        "coordinates": [
          103.4714337,
          1.56844439
        ]
      },
      "properties": {
        "name": "Kampung Seri Menanti (3)"
      },
      "id": "TvUbo"
    },
    {
      "type": "Feature",
      "geometry": {
        "type": "Point",
        "coordinates": [
          102.5761637,
          2.15759205
        ]
      },
      "properties": {
        "name": "Kampung Serom 1,Bukit Gambir"
      },
      "id": "DfKrJ"
    },
    {
      "type": "Feature",
      "geometry": {
        "type": "Point",
        "coordinates": [
          102.5805045,
          2.15988806
        ]
      },
      "properties": {
        "name": "Kampung Serom 2a,Bukit Gambir"
      },
      "id": "V5vVT"
    },
    {
      "type": "Feature",
      "geometry": {
        "type": "Point",
        "coordinates": [
          102.584704,
          2.16312068
        ]
      },
      "properties": {
        "name": "Kampung Serom 3"
      },
      "id": "0qZGI"
    },
    {
      "type": "Feature",
      "geometry": {
        "type": "Point",
        "coordinates": [
          102.593326,
          2.17026045
        ]
      },
      "properties": {
        "name": "Kampung Serom Hilir 5"
      },
      "id": "lUjKA"
    },
    {
      "type": "Feature",
      "geometry": {
        "type": "Point",
        "coordinates": [
          104.2436965,
          1.3714956
        ]
      },
      "properties": {
        "name": "Kampung Simon,Jalan Teluk Ramunia"
      },
      "id": "Bion5"
    },
    {
      "type": "Feature",
      "geometry": {
        "type": "Point",
        "coordinates": [
          102.5970664,
          2.08657361
        ]
      },
      "properties": {
        "name": "Kampung Simpang Baba"
      },
      "id": "igMuH"
    },
    {
      "type": "Feature",
      "geometry": {
        "type": "Point",
        "coordinates": [
          104.079438,
          1.917161
        ]
      },
      "properties": {
        "name": "Kampung Singapura"
      },
      "id": "K4OtT"
    },
    {
      "type": "Feature",
      "geometry": {
        "type": "Point",
        "coordinates": [
          104.079514,
          1.917011
        ]
      },
      "properties": {
        "name": "Kampung Singapura"
      },
      "id": "qy9Ff"
    },
    {
      "type": "Feature",
      "geometry": {
        "type": "Point",
        "coordinates": [
          103.602699,
          2.261892
        ]
      },
      "properties": {
        "name": "Kampung Sri Lulut"
      },
      "id": "5cHj2"
    },
    {
      "type": "Feature",
      "geometry": {
        "type": "Point",
        "coordinates": [
          102.6371804,
          2.04483761
        ]
      },
      "properties": {
        "name": "Kampung Sri Tanjung,Jalan Muar"
      },
      "id": "lcd38"
    },
    {
      "type": "Feature",
      "geometry": {
        "type": "Point",
        "coordinates": [
          103.7276835,
          2.62442071
        ]
      },
      "properties": {
        "name": "Kampung Sungai Bebuta,Jalan Penyabong - Endau"
      },
      "id": "J0jXT"
    },
    {
      "type": "Feature",
      "geometry": {
        "type": "Point",
        "coordinates": [
          103.465575,
          1.324106
        ]
      },
      "properties": {
        "name": "Kampung Sungai Durian"
      },
      "id": "syDu4"
    },
    {
      "type": "Feature",
      "geometry": {
        "type": "Point",
        "coordinates": [
          103.465568,
          1.324071
        ]
      },
      "properties": {
        "name": "Kampung Sungai Durian ( Return)"
      },
      "id": "8OOwP"
    },
    {
      "type": "Feature",
      "geometry": {
        "type": "Point",
        "coordinates": [
          102.6721697,
          2.22137483
        ]
      },
      "properties": {
        "name": "Kampung Sungai Ekor"
      },
      "id": "QbZHy"
    },
    {
      "type": "Feature",
      "geometry": {
        "type": "Point",
        "coordinates": [
          102.6686043,
          2.21990967
        ]
      },
      "properties": {
        "name": "Kampung Sungai Jaya"
      },
      "id": "WwvkB"
    },
    {
      "type": "Feature",
      "geometry": {
        "type": "Point",
        "coordinates": [
          103.472212,
          1.315625
        ]
      },
      "properties": {
        "name": "Kampung Sungai Kuali"
      },
      "id": "OVg9U"
    },
    {
      "type": "Feature",
      "geometry": {
        "type": "Point",
        "coordinates": [
          103.6819845,
          2.64297191
        ]
      },
      "properties": {
        "name": "Kampung Sungai Mengkuang,Jalan Penyabong - Endau"
      },
      "id": "BNM6b"
    },
    {
      "type": "Feature",
      "geometry": {
        "type": "Point",
        "coordinates": [
          103.686648,
          1.487589
        ]
      },
      "properties": {
        "name": "Kampung Sungai Perling"
      },
      "id": "kPfUP"
    },
    {
      "type": "Feature",
      "geometry": {
        "type": "Point",
        "coordinates": [
          104.0012701,
          1.46548166
        ]
      },
      "properties": {
        "name": "Kampung Tanjung Langsat"
      },
      "id": "42y2x"
    },
    {
      "type": "Feature",
      "geometry": {
        "type": "Point",
        "coordinates": [
          104.104891,
          1.918951
        ]
      },
      "properties": {
        "name": "Kampung Tanjung Lembu"
      },
      "id": "jghWX"
    },
    {
      "type": "Feature",
      "geometry": {
        "type": "Point",
        "coordinates": [
          103.8609378,
          2.41047254
        ]
      },
      "properties": {
        "name": "Kampung Telok Iskandar,Jalan Sekakap"
      },
      "id": "A3LDs"
    },
    {
      "type": "Feature",
      "geometry": {
        "type": "Point",
        "coordinates": [
          104.09424,
          1.925135
        ]
      },
      "properties": {
        "name": "Kampung Teluk Jeri"
      },
      "id": "2avdr"
    },
    {
      "type": "Feature",
      "geometry": {
        "type": "Point",
        "coordinates": [
          102.7815112,
          2.54722206
        ]
      },
      "properties": {
        "name": "Kampung Teluk Keladi"
      },
      "id": "sdyVC"
    },
    {
      "type": "Feature",
      "geometry": {
        "type": "Point",
        "coordinates": [
          102.5820978,
          2.08648763
        ]
      },
      "properties": {
        "name": "Kampung Temiang ubah ke (Hospital Pakar Sultanah Fatimah, Muar)"
      },
      "id": "NyE2V"
    },
    {
      "type": "Feature",
      "geometry": {
        "type": "Point",
        "coordinates": [
          102.609705,
          2.068276
        ]
      },
      "properties": {
        "name": "Kampung Tengah"
      },
      "id": "amqZH"
    },
    {
      "type": "Feature",
      "geometry": {
        "type": "Point",
        "coordinates": [
          102.8056961,
          2.52169048
        ]
      },
      "properties": {
        "name": "Kampung Tengah"
      },
      "id": "S9f7R"
    },
    {
      "type": "Feature",
      "geometry": {
        "type": "Point",
        "coordinates": [
          103.800765,
          2.495827
        ]
      },
      "properties": {
        "name": "Kampung Tenglu"
      },
      "id": "V3UJU"
    },
    {
      "type": "Feature",
      "geometry": {
        "type": "Point",
        "coordinates": [
          103.80133,
          2.495321
        ]
      },
      "properties": {
        "name": "Kampung Tenglu (Ke Mersing)"
      },
      "id": "zkWkj"
    },
    {
      "type": "Feature",
      "geometry": {
        "type": "Point",
        "coordinates": [
          103.793748,
          2.510004
        ]
      },
      "properties": {
        "name": "Kampung Tenglu Batu Enam"
      },
      "id": "UefK6"
    },
    {
      "type": "Feature",
      "geometry": {
        "type": "Point",
        "coordinates": [
          103.791412,
          2.515078
        ]
      },
      "properties": {
        "name": "Kampung Tenglu Batu Enam (Ke Mersing)"
      },
      "id": "SRwkj"
    },
    {
      "type": "Feature",
      "geometry": {
        "type": "Point",
        "coordinates": [
          103.80797,
          2.481709
        ]
      },
      "properties": {
        "name": "Kampung Tenglu Kecil "
      },
      "id": "LRsLT"
    },
    {
      "type": "Feature",
      "geometry": {
        "type": "Point",
        "coordinates": [
          103.808209,
          2.481732
        ]
      },
      "properties": {
        "name": "Kampung Tenglu Kecil (Ke Mersing)"
      },
      "id": "teBM7"
    },
    {
      "type": "Feature",
      "geometry": {
        "type": "Point",
        "coordinates": [
          103.8173791,
          2.4871747
        ]
      },
      "properties": {
        "name": "Kampung Tenglu Laut"
      },
      "id": "R6CW3"
    },
    {
      "type": "Feature",
      "geometry": {
        "type": "Point",
        "coordinates": [
          103.817278,
          2.49332921
        ]
      },
      "properties": {
        "name": "Kampung Tenglu Laut,Jalan Makam"
      },
      "id": "emM7m"
    },
    {
      "type": "Feature",
      "geometry": {
        "type": "Point",
        "coordinates": [
          103.398182,
          1.468452
        ]
      },
      "properties": {
        "name": "Kampung Terjun Rimba"
      },
      "id": "IGivW"
    },
    {
      "type": "Feature",
      "geometry": {
        "type": "Point",
        "coordinates": [
          103.398268,
          1.467939
        ]
      },
      "properties": {
        "name": "Kampung Terjun Rimba (Return)"
      },
      "id": "OUZd1"
    },
    {
      "type": "Feature",
      "geometry": {
        "type": "Point",
        "coordinates": [
          103.043142,
          2.338874
        ]
      },
      "properties": {
        "name": "Kampung Usaha Jaya (Ke Labis)"
      },
      "id": "qjEMS"
    },
    {
      "type": "Feature",
      "geometry": {
        "type": "Point",
        "coordinates": [
          103.0433529,
          2.33830132
        ]
      },
      "properties": {
        "name": "KAMPUNG USAHA JAYA (MENGHALA CHAAH)"
      },
      "id": "NmtEG"
    },
    {
      "type": "Feature",
      "geometry": {
        "type": "Point",
        "coordinates": [
          103.12395014,
          2.06334389
        ]
      },
      "properties": {
        "name": "Kangkar Baru"
      },
      "id": "s9Bki"
    },
    {
      "type": "Feature",
      "geometry": {
        "type": "Point",
        "coordinates": [
          103.5987843,
          1.4527163
        ]
      },
      "properties": {
        "name": "Kawasan Perindustrian Gelang Patah"
      },
      "id": "HkvR2"
    },
    {
      "type": "Feature",
      "geometry": {
        "type": "Point",
        "coordinates": [
          102.7014284,
          2.21393818
        ]
      },
      "properties": {
        "name": "Kawasan Perindustrian Gresik"
      },
      "id": "Nm7YF"
    },
    {
      "type": "Feature",
      "geometry": {
        "type": "Point",
        "coordinates": [
          103.8794102,
          1.70090914
        ]
      },
      "properties": {
        "name": "Kawasan Perindustrian Jalan Johor"
      },
      "id": "6vB5D"
    },
    {
      "type": "Feature",
      "geometry": {
        "type": "Point",
        "coordinates": [
          103.8794102,
          1.70090914
        ]
      },
      "properties": {
        "name": "Kawasan Perindustrian Jalan Johor"
      },
      "id": "xNSW6"
    },
    {
      "type": "Feature",
      "geometry": {
        "type": "Point",
        "coordinates": [
          103.7314,
          1.513897
        ]
      },
      "properties": {
        "name": "Kawasan Perindustrian Kempas,Jalan Kempas"
      },
      "id": "igVze"
    },
    {
      "type": "Feature",
      "geometry": {
        "type": "Point",
        "coordinates": [
          103.5518436,
          1.66856212
        ]
      },
      "properties": {
        "name": "Kawasan Perindustrian Kulai Estate,Jalan Kulai - Sedenak"
      },
      "id": "KbwXP"
    },
    {
      "type": "Feature",
      "geometry": {
        "type": "Point",
        "coordinates": [
          102.724628,
          2.13243286
        ]
      },
      "properties": {
        "name": "Kawasan Perindustrian Pagoh"
      },
      "id": "8C7MI"
    },
    {
      "type": "Feature",
      "geometry": {
        "type": "Point",
        "coordinates": [
          103.356869,
          2.05546
        ]
      },
      "properties": {
        "name": "Kawasan Perindustrian Sembrong"
      },
      "id": "EptsA"
    },
    {
      "type": "Feature",
      "geometry": {
        "type": "Point",
        "coordinates": [
          102.5582663,
          2.06090078
        ]
      },
      "properties": {
        "name": "Kawasan Perindustrian Tanjung Agas,Jalan Kesang"
      },
      "id": "uxzQH"
    },
    {
      "type": "Feature",
      "geometry": {
        "type": "Point",
        "coordinates": [
          103.7302942,
          1.51590923
        ]
      },
      "properties": {
        "name": "Kawasan Perniagaan Indah,Jalan Kempas"
      },
      "id": "plgPh"
    },
    {
      "type": "Feature",
      "geometry": {
        "type": "Point",
        "coordinates": [
          103.5350667,
          1.67120278
        ]
      },
      "properties": {
        "name": "Kawasan Perumahan Kampung Kelapa Sawit,Jalan Kulai - Sedenak "
      },
      "id": "v4FhM"
    },
    {
      "type": "Feature",
      "geometry": {
        "type": "Point",
        "coordinates": [
          103.5330172,
          1.67383592
        ]
      },
      "properties": {
        "name": "Kelapa Sawit"
      },
      "id": "35jGs"
    },
    {
      "type": "Feature",
      "geometry": {
        "type": "Point",
        "coordinates": [
          103.7192435,
          1.53102116
        ]
      },
      "properties": {
        "name": "Kempas Baru,Jalan Kempas"
      },
      "id": "xmaq2"
    },
    {
      "type": "Feature",
      "geometry": {
        "type": "Point",
        "coordinates": [
          103.7264213,
          1.52076304
        ]
      },
      "properties": {
        "name": "Kempas Denai, Jalan Kempas"
      },
      "id": "UpGSP"
    },
    {
      "type": "Feature",
      "geometry": {
        "type": "Point",
        "coordinates": [
          103.725586,
          1.522394
        ]
      },
      "properties": {
        "name": "Kempas Medical Centre (Bus Stop)"
      },
      "id": "0ynRn"
    },
    {
      "type": "Feature",
      "geometry": {
        "type": "Point",
        "coordinates": [
          103.7169092,
          1.53402822
        ]
      },
      "properties": {
        "name": "Kempas Permatang,Jalan Kempas"
      },
      "id": "yuRiF"
    },
    {
      "type": "Feature",
      "geometry": {
        "type": "Point",
        "coordinates": [
          103.77893,
          1.46705
        ]
      },
      "properties": {
        "name": "KFC Stulang Laut"
      },
      "id": "haqze"
    },
    {
      "type": "Feature",
      "geometry": {
        "type": "Point",
        "coordinates": [
          104.2270243,
          1.35368524
        ]
      },
      "properties": {
        "name": "KFC Sungai Rengit"
      },
      "id": "S22n2"
    },
    {
      "type": "Feature",
      "geometry": {
        "type": "Point",
        "coordinates": [
          103.0578,
          2.0102
        ]
      },
      "properties": {
        "name": "Kg Jalan Lama (Jalan Yong Peng)"
      },
      "id": "06h16"
    },
    {
      "type": "Feature",
      "geometry": {
        "type": "Point",
        "coordinates": [
          103.974621,
          1.850969
        ]
      },
      "properties": {
        "name": "Kg Mawai Baharu (Ke Kota Tinggi )"
      },
      "id": "POtM8"
    },
    {
      "type": "Feature",
      "geometry": {
        "type": "Point",
        "coordinates": [
          103.86012,
          1.58809
        ]
      },
      "properties": {
        "name": "Kg Mulia Sungai Tiram 492 Jln Sg Tiram"
      },
      "id": "fP90g"
    },
    {
      "type": "Feature",
      "geometry": {
        "type": "Point",
        "coordinates": [
          103.0557,
          2.0084
        ]
      },
      "properties": {
        "name": "Kg Parit Awang (Jalan Yong Peng)"
      },
      "id": "hPDLG"
    },
    {
      "type": "Feature",
      "geometry": {
        "type": "Point",
        "coordinates": [
          103.5350525,
          1.67138265
        ]
      },
      "properties": {
        "name": "Kg Sri Paya"
      },
      "id": "ToiJD"
    },
    {
      "type": "Feature",
      "geometry": {
        "type": "Point",
        "coordinates": [
          103.472213,
          1.315644
        ]
      },
      "properties": {
        "name": "Kg Sungai Kuali (Return)"
      },
      "id": "mlxBL"
    },